{
"type": "FeatureCollection",
"name": "previous_projects",
"crs": { "type": "name", "properties": { "name": "urn:ogc:def:crs:OGC:1.3:CRS84" } },
"features": [
{ "type": "Feature", "properties": { "id": "2011-039", "name": "Washington Estates II", "address": "101 Washington Dr", "type": "9% in service", "ProjYear": "2011" }, "geometry": { "type": "Point", "coordinates": [ -82.8153951001037, 32.953890680210698 ] } },
{ "type": "Feature", "properties": { "id": "2011-036", "name": "Oak Forest Apartments", "address": "963 Oak Forest Dr., #3", "type": "9% in service", "ProjYear": "2011" }, "geometry": { "type": "Point", "coordinates": [ -83.174907720614797, 32.184066920452103 ] } },
{ "type": "Feature", "properties": { "id": "2011-031", "name": "Columbia Mill", "address": "2229 Flat Shoals Rd SE", "type": "9% in service", "ProjYear": "2011" }, "geometry": { "type": "Point", "coordinates": [ -84.315091810638506, 33.7215538097606 ] } },
{ "type": "Feature", "properties": { "id": "2011-029", "name": "Forest at York", "address": "301 Calumet Parkway", "type": "9% in service", "ProjYear": "2011" }, "geometry": { "type": "Point", "coordinates": [ -84.770903390678896, 33.403936759673797 ] } },
{ "type": "Feature", "properties": { "id": "2011-028", "name": "Endeavor Pointe", "address": "102 Endeavor Pointe Way", "type": "9% in service", "ProjYear": "2011" }, "geometry": { "type": "Point", "coordinates": [ -85.240920000757399, 34.820170000045501 ] } },
{ "type": "Feature", "properties": { "id": "2011-027", "name": "Chestnut Village", "address": "23 Chestnut Ridge Circle", "type": "9% in service", "ProjYear": "2011" }, "geometry": { "type": "Point", "coordinates": [ -83.075101229737896, 31.047424150204399 ] } },
{ "type": "Feature", "properties": { "id": "2011-026", "name": "Gateway Pines II", "address": "1022 W. Stanfill Street", "type": "9% in service", "ProjYear": "2011" }, "geometry": { "type": "Point", "coordinates": [ -83.386488169693195, 30.9943974603746 ] } },
{ "type": "Feature", "properties": { "id": "2011-025", "name": "Edenfield Place Apts", "address": "535 Brier Creek Circle", "type": "9% in service", "ProjYear": "2011" }, "geometry": { "type": "Point", "coordinates": [ -81.940092450306295, 32.796386619546901 ] } },
{ "type": "Feature", "properties": { "id": "2011-024", "name": "Woodvale III", "address": "1301 E. 8th Avenue", "type": "9% in service", "ProjYear": "2011" }, "geometry": { "type": "Point", "coordinates": [ -83.762875349817506, 31.9736642603973 ] } },
{ "type": "Feature", "properties": { "id": "2011-023", "name": "The Village at Winding Road", "address": "301 Carnegie Drive", "type": "9% in service", "ProjYear": "2011" }, "geometry": { "type": "Point", "coordinates": [ -81.613468650357902, 30.7852153197313 ] } },
{ "type": "Feature", "properties": { "id": "2011-020", "name": "Heritage Vista", "address": "3029 Heritage Place", "type": "9% in service", "ProjYear": "2011" }, "geometry": { "type": "Point", "coordinates": [ -83.258531119915204, 33.119237490118103 ] } },
{ "type": "Feature", "properties": { "id": "2011-017", "name": "Farmington Woods", "address": "34 Farmington Circle", "type": "9% in service", "ProjYear": "2011" }, "geometry": { "type": "Point", "coordinates": [ -84.110397374239398, 34.409623272596001 ] } },
{ "type": "Feature", "properties": { "id": "2011-015", "name": "Briarcliff Summit", "address": "1050 Ponce De Leon Avenue", "type": "9% in service", "ProjYear": "2011" }, "geometry": { "type": "Point", "coordinates": [ -84.353011040327203, 33.773837480615299 ] } },
{ "type": "Feature", "properties": { "id": "2011-013", "name": "Ashley Auburn Pointe II", "address": "100 Bell Street", "type": "9% in service", "ProjYear": "2011" }, "geometry": { "type": "Point", "coordinates": [ -84.379456950477802, 33.751500000024997 ] } },
{ "type": "Feature", "properties": { "id": "2011-011", "name": "JT Deerfield", "address": "112 Pinecrest Dr", "type": "9% in service", "ProjYear": "2011" }, "geometry": { "type": "Point", "coordinates": [ -82.8487462801167, 31.4785820394296 ] } },
{ "type": "Feature", "properties": { "id": "2011-005", "name": "Ivywood Park", "address": "4475 Beech Haven Trail", "type": "9% in service", "ProjYear": "2011" }, "geometry": { "type": "Point", "coordinates": [ -84.483463040586798, 33.845988019931198 ] } },
{ "type": "Feature", "properties": { "id": "2011-004", "name": "Plantation IV", "address": "201 Casey Drive", "type": "9% in service", "ProjYear": "2011" }, "geometry": { "type": "Point", "coordinates": [ -81.321323270352593, 31.920174009622901 ] } },
{ "type": "Feature", "properties": { "id": "2011-003", "name": "Pecan Point", "address": "133 Limestone Road", "type": "9% in service", "ProjYear": "2011" }, "geometry": { "type": "Point", "coordinates": [ -83.358387999806297, 32.375844659603402 ] } },
{ "type": "Feature", "properties": { "id": "2010-071", "name": "Allen Wilson II", "address": "1450 Commerce Drive", "type": "9% in service", "ProjYear": "2010" }, "geometry": { "type": "Point", "coordinates": [ -84.298917500042506, 33.771435010117699 ] } },
{ "type": "Feature", "properties": { "id": "2010-070", "name": "Goshen Crossing", "address": "121 Goshen Commercial Park Drive", "type": "9% in service", "ProjYear": "2010" }, "geometry": { "type": "Point", "coordinates": [ -81.210094599885807, 32.252909050012697 ] } },
{ "type": "Feature", "properties": { "id": "2010-068", "name": "Toccoa Fern Point LP", "address": "280 Fern Point Drive", "type": "9% in service", "ProjYear": "2010" }, "geometry": { "type": "Point", "coordinates": [ -83.300350029430305, 34.571180020141902 ] } },
{ "type": "Feature", "properties": { "id": "2010-067", "name": "Forrester Senior Village", "address": "197 Forrester Pkwy", "type": "9% in service", "ProjYear": "2010" }, "geometry": { "type": "Point", "coordinates": [ -84.163243390270196, 31.658576229809199 ] } },
{ "type": "Feature", "properties": { "id": "2010-066", "name": "Conners Senior Village I", "address": "9501 Conners Rd", "type": "9% in service", "ProjYear": "2010" }, "geometry": { "type": "Point", "coordinates": [ -84.893142639920896, 33.732773230000603 ] } },
{ "type": "Feature", "properties": { "id": "2010-065", "name": "Highland Manor", "address": "198 North Corners Pkwy", "type": "9% in service", "ProjYear": "2010" }, "geometry": { "type": "Point", "coordinates": [ -84.155625600141306, 34.215213449840903 ] } },
{ "type": "Feature", "properties": { "id": "2010-059", "name": "Farmington Hills I", "address": "1506 Farmington Way", "type": "9% in service", "ProjYear": "2010" }, "geometry": { "type": "Point", "coordinates": [ -83.720435300148907, 33.993084600673903 ] } },
{ "type": "Feature", "properties": { "id": "2010-058", "name": "Grace Crossing Apartments", "address": "183 Gesmon Neville Lane, #100", "type": "9% in service", "ProjYear": "2010" }, "geometry": { "type": "Point", "coordinates": [ -81.797283180574297, 32.442443360173002 ] } },
{ "type": "Feature", "properties": { "id": "2010-057", "name": "Faith Crossing", "address": "123 Agan Drive", "type": "9% in service", "ProjYear": "2010" }, "geometry": { "type": "Point", "coordinates": [ -82.409015000042203, 32.221745000531399 ] } },
{ "type": "Feature", "properties": { "id": "2010-055", "name": "Veranda at Scholars Landing", "address": "130 Lawshe Street SW", "type": "9% in service", "ProjYear": "2010" }, "geometry": { "type": "Point", "coordinates": [ -84.411215729722102, 33.750818820232404 ] } },
{ "type": "Feature", "properties": { "id": "2010-052", "name": "Maplewood Park", "address": "6355 Oakley Road", "type": "9% in service", "ProjYear": "2010" }, "geometry": { "type": "Point", "coordinates": [ -84.533160010326199, 33.581489979578897 ] } },
{ "type": "Feature", "properties": { "id": "2010-047", "name": "Hearthside at Johns Creek", "address": "11340 Medlock Bridge Road", "type": "9% in service", "ProjYear": "2010" }, "geometry": { "type": "Point", "coordinates": [ -84.174161929729195, 34.056842089291003 ] } },
{ "type": "Feature", "properties": { "id": "2010-045", "name": "Harmony Greene", "address": "201 Harmony Blvd.", "type": "9% in service", "ProjYear": "2010" }, "geometry": { "type": "Point", "coordinates": [ -81.260810030258696, 32.079629000178301 ] } },
{ "type": "Feature", "properties": { "id": "2010-043", "name": "The Village at Walker's Bend", "address": "5978 Evertt St SW", "type": "9% in service", "ProjYear": "2010" }, "geometry": { "type": "Point", "coordinates": [ -83.871939999631294, 33.5877974502922 ] } },
{ "type": "Feature", "properties": { "id": "2010-041", "name": "Green Mountain Village", "address": "248 Green Mountain Village", "type": "9% in service", "ProjYear": "2010" }, "geometry": { "type": "Point", "coordinates": [ -83.559950089425101, 34.534088870005398 ] } },
{ "type": "Feature", "properties": { "id": "2010-040", "name": "Silverwood Place", "address": "141 Silverwood Court", "type": "9% in service", "ProjYear": "2010" }, "geometry": { "type": "Point", "coordinates": [ -81.220868170429696, 32.2648819303569 ] } },
{ "type": "Feature", "properties": { "id": "2010-038", "name": "Legacy at Walton Terrace", "address": "4645 Spring Street", "type": "9% in service", "ProjYear": "2010" }, "geometry": { "type": "Point", "coordinates": [ -84.665317189936303, 34.066932130113699 ] } },
{ "type": "Feature", "properties": { "id": "2010-037", "name": "Underwood Homes Redevelopment", "address": "602 Fairhope Street", "type": "9% in service", "ProjYear": "2010" }, "geometry": { "type": "Point", "coordinates": [ -81.931272430278398, 33.458809770254703 ] } },
{ "type": "Feature", "properties": { "id": "2010-032", "name": "Magnolia Trace", "address": "520 Pacifica Dr", "type": "9% in service", "ProjYear": "2010" }, "geometry": { "type": "Point", "coordinates": [ -82.086422210616504, 33.526340369912198 ] } },
{ "type": "Feature", "properties": { "id": "2010-030", "name": "Kingsland III", "address": "201 Caney Heights", "type": "9% in service", "ProjYear": "2010" }, "geometry": { "type": "Point", "coordinates": [ -81.681519709267107, 30.810520220431901 ] } },
{ "type": "Feature", "properties": { "id": "2010-026", "name": "Edgewood Townhomes II", "address": "37 Hutchinson Street", "type": "9% in service", "ProjYear": "2010" }, "geometry": { "type": "Point", "coordinates": [ -84.340702470042899, 33.7544940193835 ] } },
{ "type": "Feature", "properties": { "id": "2010-025", "name": "Arbor Pointe III", "address": "1454 Cupola Place", "type": "9% in service", "ProjYear": "2010" }, "geometry": { "type": "Point", "coordinates": [ -84.942091110216595, 32.426709149907403 ] } },
{ "type": "Feature", "properties": { "id": "2010-023", "name": "Tanglewood", "address": "468 E Liberty Street", "type": "9% in service", "ProjYear": "2010" }, "geometry": { "type": "Point", "coordinates": [ -84.927960900175407, 31.376152500437598 ] } },
{ "type": "Feature", "properties": { "id": "2010-020", "name": "Baptist Gardens", "address": "1901 Myrtle Drive SW", "type": "9% in service", "ProjYear": "2010" }, "geometry": { "type": "Point", "coordinates": [ -84.455002370263102, 33.702790960734298 ] } },
{ "type": "Feature", "properties": { "id": "2010-018", "name": "Savannah Gardens Phase III", "address": "500 Pennsylvania Avenue", "type": "9% in service", "ProjYear": "2010" }, "geometry": { "type": "Point", "coordinates": [ -81.059734960400107, 32.061908020239002 ] } },
{ "type": "Feature", "properties": { "id": "2010-015", "name": "Windwood Villas", "address": "331 Loblolly Lane", "type": "9% in service", "ProjYear": "2010" }, "geometry": { "type": "Point", "coordinates": [ -84.174144749980201, 30.879650169919401 ] } },
{ "type": "Feature", "properties": { "id": "2010-014", "name": "Windsor", "address": "198 Eldridge Street", "type": "9% in service", "ProjYear": "2010" }, "geometry": { "type": "Point", "coordinates": [ -82.064382670024102, 32.405067370462803 ] } },
{ "type": "Feature", "properties": { "id": "2010-012", "name": "Elijay East", "address": "188 Eric Simpson Drive", "type": "9% in service", "ProjYear": "2010" }, "geometry": { "type": "Point", "coordinates": [ -84.482552010267, 34.682585110614397 ] } },
{ "type": "Feature", "properties": { "id": "2010-011", "name": "Cotton Mill Lofts", "address": "95 S. Houston Street", "type": "9% in service", "ProjYear": "2010" }, "geometry": { "type": "Point", "coordinates": [ -83.465127599958706, 32.281182670344002 ] } },
{ "type": "Feature", "properties": { "id": "2010-008", "name": "Tucker Cottages", "address": "301 Jordan Way", "type": "9% in service", "ProjYear": "2010" }, "geometry": { "type": "Point", "coordinates": [ -85.006562649746499, 33.025683199420101 ] } },
{ "type": "Feature", "properties": { "id": "2010-006", "name": "Maple Square", "address": "50 Nelson Drive", "type": "9% in service", "ProjYear": "2010" }, "geometry": { "type": "Point", "coordinates": [ -83.604250929936399, 34.142908979865602 ] } },
{ "type": "Feature", "properties": { "id": "2010-005", "name": "Walnut Square", "address": "100 Walnut Square Drive", "type": "9% in service", "ProjYear": "2010" }, "geometry": { "type": "Point", "coordinates": [ -83.946962290077593, 30.8759588998834 ] } },
{ "type": "Feature", "properties": { "id": "2010-004", "name": "Gateway Pines I", "address": "770 Union Road", "type": "9% in service", "ProjYear": "2010" }, "geometry": { "type": "Point", "coordinates": [ -83.388078880635803, 30.995943340113101 ] } },
{ "type": "Feature", "properties": { "id": "2009-069", "name": "Savannah Gardens Phase I", "address": "515 Pennsylvania Avenue", "type": "9% in service", "ProjYear": "2009" }, "geometry": { "type": "Point", "coordinates": [ -81.060472230009395, 32.061103150390103 ] } },
{ "type": "Feature", "properties": { "id": "2009-066", "name": "Lakewood Hills Senior Village", "address": "1025 Barnett Shoals Rd", "type": "9% in service", "ProjYear": "2009" }, "geometry": { "type": "Point", "coordinates": [ -83.350109369851495, 33.933929649833502 ] } },
{ "type": "Feature", "properties": { "id": "2009-061", "name": "Ruthie Manor Apartments", "address": "101 Ruthie Manor Drive", "type": "9% in service", "ProjYear": "2009" }, "geometry": { "type": "Point", "coordinates": [ -84.325234999595494, 32.889615000432002 ] } },
{ "type": "Feature", "properties": { "id": "2009-058", "name": "Park Place II", "address": "646 N Park St", "type": "9% in service", "ProjYear": "2009" }, "geometry": { "type": "Point", "coordinates": [ -85.078712529859303, 33.587585259751897 ] } },
{ "type": "Feature", "properties": { "id": "2009-056", "name": "Camercon Court Apartments Ph II", "address": "1807 Macon Road", "type": "9% in service", "ProjYear": "2009" }, "geometry": { "type": "Point", "coordinates": [ -83.729721910038094, 32.4756243003213 ] } },
{ "type": "Feature", "properties": { "id": "2009-055", "name": "Shoal Creek Manor", "address": "500 Dewy Rose Lane", "type": "9% in service", "ProjYear": "2009" }, "geometry": { "type": "Point", "coordinates": [ -84.1055544296931, 33.344243720171598 ] } },
{ "type": "Feature", "properties": { "id": "2009-051", "name": "Waynesboro Senior", "address": "830 Academy Avenue", "type": "9% in service", "ProjYear": "2009" }, "geometry": { "type": "Point", "coordinates": [ -82.021197510456702, 33.093755879829999 ] } },
{ "type": "Feature", "properties": { "id": "2009-050", "name": "Hummingbird Pointe", "address": "307 Geneva Rd", "type": "9% in service", "ProjYear": "2009" }, "geometry": { "type": "Point", "coordinates": [ -85.235976000292197, 34.050425999360399 ] } },
{ "type": "Feature", "properties": { "id": "2009-049", "name": "Shangri-La Park", "address": "69 Gilreath Road NW", "type": "9% in service", "ProjYear": "2009" }, "geometry": { "type": "Point", "coordinates": [ -84.813598800144504, 34.223087459518702 ] } },
{ "type": "Feature", "properties": { "id": "2009-047", "name": "Hearthside Towne Lake", "address": "1561 Stone Bridge Pkwy", "type": "9% in service", "ProjYear": "2009" }, "geometry": { "type": "Point", "coordinates": [ -84.535588500009197, 34.103468430024101 ] } },
{ "type": "Feature", "properties": { "id": "2009-045", "name": "Hearthside Brookleigh", "address": "2282 Johnson Ferry Road", "type": "9% in service", "ProjYear": "2009" }, "geometry": { "type": "Point", "coordinates": [ -84.320775919872702, 33.890436369942599 ] } },
{ "type": "Feature", "properties": { "id": "2009-042", "name": "Antioch Villas and Gardens", "address": "4735 Bishop Ming Boulevard", "type": "9% in service", "ProjYear": "2009" }, "geometry": { "type": "Point", "coordinates": [ -84.194851730023302, 33.737875129833398 ] } },
{ "type": "Feature", "properties": { "id": "2009-041", "name": "Bartlett Crossing", "address": "3027 Bonneville Drive", "type": "9% in service", "ProjYear": "2009" }, "geometry": { "type": "Point", "coordinates": [ -83.670820260446703, 32.833417529495399 ] } },
{ "type": "Feature", "properties": { "id": "2009-039", "name": "Heritage at McDonough", "address": "180 Bridges Road", "type": "9% in service", "ProjYear": "2009" }, "geometry": { "type": "Point", "coordinates": [ -84.159317240698002, 33.443457010133002 ] } },
{ "type": "Feature", "properties": { "id": "2009-038", "name": "JT Summerville, LP", "address": "84 Summberville Gardens Dr", "type": "9% in service", "ProjYear": "2009" }, "geometry": { "type": "Point", "coordinates": [ -85.352335009852794, 34.468090600001197 ] } },
{ "type": "Feature", "properties": { "id": "2009-035", "name": "Rolling Pine", "address": "4741 Rolling Pine Drive", "type": "9% in service", "ProjYear": "2009" }, "geometry": { "type": "Point", "coordinates": [ -83.229995439837595, 30.682167629932199 ] } },
{ "type": "Feature", "properties": { "id": "2009-035", "name": "Ventnor Park", "address": "747 GA Hwy 127", "type": "9% in service", "ProjYear": "2009" }, "geometry": { "type": "Point", "coordinates": [ -84.013549599834107, 32.721513200174101 ] } },
{ "type": "Feature", "properties": { "id": "2009-033", "name": "Gateway at East Point", "address": "1311 East Cleveand Avenue", "type": "9% in service", "ProjYear": "2009" }, "geometry": { "type": "Point", "coordinates": [ -84.431152499787999, 33.6796118900767 ] } },
{ "type": "Feature", "properties": { "id": "2009-032", "name": "Manor at Scotts Crossing", "address": "1671 James Jackson Parkway NW", "type": "9% in service", "ProjYear": "2009" }, "geometry": { "type": "Point", "coordinates": [ -84.475447259983, 33.799873389845096 ] } },
{ "type": "Feature", "properties": { "id": "2009-031", "name": "Underwood Homes Senior", "address": "602 Fairhope Street", "type": "9% in service", "ProjYear": "2009" }, "geometry": { "type": "Point", "coordinates": [ -81.931272430278398, 33.458809770254703 ] } },
{ "type": "Feature", "properties": { "id": "2009-029", "name": "Legacy at Walton Village 2", "address": "1600 Roberta Drive", "type": "9% in service", "ProjYear": "2009" }, "geometry": { "type": "Point", "coordinates": [ -84.557270439579099, 33.914308790018701 ] } },
{ "type": "Feature", "properties": { "id": "2009-028", "name": "Parkside at Mechanicsville", "address": "565 McDaniel Street", "type": "9% in service", "ProjYear": "2009" }, "geometry": { "type": "Point", "coordinates": [ -84.402139379528705, 33.739377340292101 ] } },
{ "type": "Feature", "properties": { "id": "2009-027", "name": "Edgewood Townhomes", "address": "150 Hutchinson Street", "type": "9% in service", "ProjYear": "2009" }, "geometry": { "type": "Point", "coordinates": [ -84.340727530551106, 33.757659990016599 ] } },
{ "type": "Feature", "properties": { "id": "2009-023", "name": "Sustainable Fellwood III", "address": "40 Eagle Street", "type": "9% in service", "ProjYear": "2009" }, "geometry": { "type": "Point", "coordinates": [ -81.115467739944194, 32.086488999967401 ] } },
{ "type": "Feature", "properties": { "id": "2009-017", "name": "Ware Hotel", "address": "604 Elizabeth Street", "type": "9% in service", "ProjYear": "2009" }, "geometry": { "type": "Point", "coordinates": [ -82.361359029995199, 31.209677469439701 ] } },
{ "type": "Feature", "properties": { "id": "2009-015", "name": "Ridgefield Place", "address": "100 Parkview Drive", "type": "9% in service", "ProjYear": "2009" }, "geometry": { "type": "Point", "coordinates": [ -84.574840100490206, 30.8977132996291 ] } },
{ "type": "Feature", "properties": { "id": "2009-014", "name": "Harristown Park", "address": "2135 Reynolds St SW", "type": "9% in service", "ProjYear": "2009" }, "geometry": { "type": "Point", "coordinates": [ -83.862919990165395, 33.5953225499957 ] } },
{ "type": "Feature", "properties": { "id": "2009-010", "name": "Crest at Edinburgh", "address": "2201 Sasser Lane", "type": "9% in service", "ProjYear": "2009" }, "geometry": { "type": "Point", "coordinates": [ -82.049907249819697, 33.448407330134202 ] } },
{ "type": "Feature", "properties": { "id": "2009-009", "name": "Cove at Southlake", "address": "509 Hickory Lane", "type": "9% in service", "ProjYear": "2009" }, "geometry": { "type": "Point", "coordinates": [ -84.157932720018906, 31.550910739838798 ] } },
{ "type": "Feature", "properties": { "id": "2009-007", "name": "First Neighborhood", "address": "634 Bowman Street", "type": "9% in service", "ProjYear": "2009" }, "geometry": { "type": "Point", "coordinates": [ -83.606387309926404, 32.848610019636702 ] } },
{ "type": "Feature", "properties": { "id": "2009-006", "name": "Woodlawn Terrace", "address": "1211 North Forrest Street", "type": "9% in service", "ProjYear": "2009" }, "geometry": { "type": "Point", "coordinates": [ -83.2661979698604, 30.849739980415801 ] } },
{ "type": "Feature", "properties": { "id": "2009-005", "name": "Powell Place", "address": "200 Ward Drive", "type": "9% in service", "ProjYear": "2009" }, "geometry": { "type": "Point", "coordinates": [ -84.177715770766198, 33.050152930313502 ] } },
{ "type": "Feature", "properties": { "id": "2009-002", "name": "Etowah Terrace Senior Residences", "address": "1 Etowah Terrace", "type": "9% in service", "ProjYear": "2009" }, "geometry": { "type": "Point", "coordinates": [ -85.177444720297601, 34.2500744197987 ] } },
{ "type": "Feature", "properties": { "id": "2009-001", "name": "South River Gardens", "address": "3450 Forrest Park Road", "type": "9% in service", "ProjYear": "2009" }, "geometry": { "type": "Point", "coordinates": [ -84.350863009620198, 33.6597969898393 ] } },
{ "type": "Feature", "properties": { "id": "2008-093", "name": "Potemkin Senior Village", "address": "710 Elberta Road", "type": "9% in service", "ProjYear": "2008" }, "geometry": { "type": "Point", "coordinates": [ -83.630823159760993, 32.640754250408399 ] } },
{ "type": "Feature", "properties": { "id": "2008-076", "name": "Skyline Trace", "address": "600 Ridge Road", "type": "9% in service", "ProjYear": "2008" }, "geometry": { "type": "Point", "coordinates": [ -83.723981309889496, 33.797371050533599 ] } },
{ "type": "Feature", "properties": { "id": "2008-075", "name": "Landing at Southlake", "address": "400 Ebony Lane", "type": "9% in service", "ProjYear": "2008" }, "geometry": { "type": "Point", "coordinates": [ -84.155246370423598, 31.551502040486799 ] } },
{ "type": "Feature", "properties": { "id": "2008-074", "name": "Arbor Pointe II", "address": "1401 Cupola Place", "type": "9% in service", "ProjYear": "2008" }, "geometry": { "type": "Point", "coordinates": [ -84.941663300021204, 32.427673439877402 ] } },
{ "type": "Feature", "properties": { "id": "2008-073", "name": "West Haven Senior Village", "address": "2760 EB Hamilton Drive", "type": "9% in service", "ProjYear": "2008" }, "geometry": { "type": "Point", "coordinates": [ -83.549680640149404, 31.459412499887002 ] } },
{ "type": "Feature", "properties": { "id": "2008-072", "name": "Friendship Crossing", "address": "1405 South Friendship Avenue", "type": "9% in service", "ProjYear": "2008" }, "geometry": { "type": "Point", "coordinates": [ -84.863362950140001, 31.025804869998801 ] } },
{ "type": "Feature", "properties": { "id": "2008-068", "name": "Riverview Heights Apartments", "address": "200 Riverview Drive", "type": "9% in service", "ProjYear": "2008" }, "geometry": { "type": "Point", "coordinates": [ -82.896549500658907, 32.517412530363998 ] } },
{ "type": "Feature", "properties": { "id": "2008-065", "name": "Ther Tower at Dorsey Manor", "address": "212 Lemon Street", "type": "9% in service", "ProjYear": "2008" }, "geometry": { "type": "Point", "coordinates": [ -84.546228829696702, 33.955292519833897 ] } },
{ "type": "Feature", "properties": { "id": "2008-064", "name": "Prairie Summit Apartments", "address": "153 Westbrook Road", "type": "9% in service", "ProjYear": "2008" }, "geometry": { "type": "Point", "coordinates": [ -83.354616399627105, 32.889116199553001 ] } },
{ "type": "Feature", "properties": { "id": "2008-063", "name": "Veranda II at Auburn Pointe", "address": "55 Hillard Street", "type": "9% in service", "ProjYear": "2008" }, "geometry": { "type": "Point", "coordinates": [ -84.376673070305898, 33.752810719639101 ] } },
{ "type": "Feature", "properties": { "id": "2008-062", "name": "Veranda III at Auburn Pointe", "address": "315 Tanner Street", "type": "9% in service", "ProjYear": "2008" }, "geometry": { "type": "Point", "coordinates": [ -84.3764156807391, 33.753568500086303 ] } },
{ "type": "Feature", "properties": { "id": "2008-061", "name": "Paradise Estates Apartments", "address": "752 West Pine Street", "type": "9% in service", "ProjYear": "2008" }, "geometry": { "type": "Point", "coordinates": [ -83.848553440089205, 31.518712099483899 ] } },
{ "type": "Feature", "properties": { "id": "2008-060", "name": "Adamsville Green Senior", "address": "3537 Martin Luther King Jr. Dr. SW", "type": "9% in service", "ProjYear": "2008" }, "geometry": { "type": "Point", "coordinates": [ -84.503047110036107, 33.757991320043502 ] } },
{ "type": "Feature", "properties": { "id": "2008-059", "name": "Sustainable Fellwood II", "address": "1325 Exley Street", "type": "9% in service", "ProjYear": "2008" }, "geometry": { "type": "Point", "coordinates": [ -81.114830220438293, 32.085575289667901 ] } },
{ "type": "Feature", "properties": { "id": "2008-056", "name": "Camellia Lane Apartments", "address": "141 Camellia Lane", "type": "9% in service", "ProjYear": "2008" }, "geometry": { "type": "Point", "coordinates": [ -82.807570400253695, 33.001833689573203 ] } },
{ "type": "Feature", "properties": { "id": "2008-055", "name": "Park Place Carrollton I", "address": "646 N Park St", "type": "9% in service", "ProjYear": "2008" }, "geometry": { "type": "Point", "coordinates": [ -85.078712529859303, 33.587585259751897 ] } },
{ "type": "Feature", "properties": { "id": "2008-054", "name": "Galleria Manor at Smyrna", "address": "2731 Woodland Terrace SE", "type": "9% in service", "ProjYear": "2008" }, "geometry": { "type": "Point", "coordinates": [ -84.479192579274098, 33.886037349643999 ] } },
{ "type": "Feature", "properties": { "id": "2008-049", "name": "Baldwin Park", "address": "251 S Irwin Street", "type": "9% in service", "ProjYear": "2008" }, "geometry": { "type": "Point", "coordinates": [ -83.237816170080094, 33.075193319716 ] } },
{ "type": "Feature", "properties": { "id": "2008-048", "name": "Pine Meadows Apartments", "address": "1315 West Gordon Street", "type": "9% in service", "ProjYear": "2008" }, "geometry": { "type": "Point", "coordinates": [ -82.865803109825606, 31.513913599433099 ] } },
{ "type": "Feature", "properties": { "id": "2008-047", "name": "Ocean Breeze Park", "address": "2001 Ocean Breeze Circle", "type": "9% in service", "ProjYear": "2008" }, "geometry": { "type": "Point", "coordinates": [ -82.388892609905994, 31.213237350323499 ] } },
{ "type": "Feature", "properties": { "id": "2008-045", "name": "Preston Place", "address": "100 Phillips Drive", "type": "9% in service", "ProjYear": "2008" }, "geometry": { "type": "Point", "coordinates": [ -83.569085169844698, 30.782088150347899 ] } },
{ "type": "Feature", "properties": { "id": "2008-044", "name": "Mallard Lake Apartments", "address": "110 Old Airport Road", "type": "9% in service", "ProjYear": "2008" }, "geometry": { "type": "Point", "coordinates": [ -85.071130010241703, 33.024649980012597 ] } },
{ "type": "Feature", "properties": { "id": "2008-033", "name": "Woodvale I Apartments", "address": "1301 E. 8th Avenue", "type": "9% in service", "ProjYear": "2008" }, "geometry": { "type": "Point", "coordinates": [ -83.762875349817506, 31.9736642603973 ] } },
{ "type": "Feature", "properties": { "id": "2008-032", "name": "Pine Terrace", "address": "8214 South Marcus Street", "type": "9% in service", "ProjYear": "2008" }, "geometry": { "type": "Point", "coordinates": [ -82.718480079791803, 32.7158741397798 ] } },
{ "type": "Feature", "properties": { "id": "2008-031", "name": "Willow Apartments", "address": "1210 A Blackshear Rd", "type": "9% in service", "ProjYear": "2008" }, "geometry": { "type": "Point", "coordinates": [ -83.768832559774793, 31.980528679454999 ] } },
{ "type": "Feature", "properties": { "id": "2008-030", "name": "Dogwood View Apartments", "address": "320 Mangham Drive", "type": "9% in service", "ProjYear": "2008" }, "geometry": { "type": "Point", "coordinates": [ -85.119124340316006, 33.718030480022698 ] } },
{ "type": "Feature", "properties": { "id": "2008-028", "name": "Washington Estates I", "address": "101 Washington Dr", "type": "9% in service", "ProjYear": "2008" }, "geometry": { "type": "Point", "coordinates": [ -82.8153951001037, 32.953890680210698 ] } },
{ "type": "Feature", "properties": { "id": "2008-027", "name": "Tifton Estates", "address": "1510 Coley Street", "type": "9% in service", "ProjYear": "2008" }, "geometry": { "type": "Point", "coordinates": [ -83.512192239680104, 31.443840010208401 ] } },
{ "type": "Feature", "properties": { "id": "2008-025", "name": "Woodvale II Apartments", "address": "1301 E. 8th Avenue", "type": "9% in service", "ProjYear": "2008" }, "geometry": { "type": "Point", "coordinates": [ -83.762875349817506, 31.9736642603973 ] } },
{ "type": "Feature", "properties": { "id": "2008-022", "name": "Wrightsville Pine Terrace, LP", "address": "8214 South Marcus Street #25", "type": "9% in service", "ProjYear": "2008" }, "geometry": { "type": "Point", "coordinates": [ -82.718480079791803, 32.7158741397798 ] } },
{ "type": "Feature", "properties": { "id": "2008-020", "name": "Rosewood Estates", "address": "57 Rosewood Circle", "type": "9% in service", "ProjYear": "2008" }, "geometry": { "type": "Point", "coordinates": [ -83.787884999493102, 31.9610149999423 ] } },
{ "type": "Feature", "properties": { "id": "2008-019", "name": "Waterford Estates", "address": "100 Waterford Trail", "type": "9% in service", "ProjYear": "2008" }, "geometry": { "type": "Point", "coordinates": [ -82.898911720199706, 32.518229819850397 ] } },
{ "type": "Feature", "properties": { "id": "2008-012", "name": "Spring Creek", "address": "2010 South Court Street", "type": "9% in service", "ProjYear": "2008" }, "geometry": { "type": "Point", "coordinates": [ -83.560468950581594, 30.775279560303499 ] } },
{ "type": "Feature", "properties": { "id": "2008-011", "name": "Hooks Plantation Apartments", "address": "170 Bright Street", "type": "9% in service", "ProjYear": "2008" }, "geometry": { "type": "Point", "coordinates": [ -84.786947779816202, 31.757907830082299 ] } },
{ "type": "Feature", "properties": { "id": "2008-010", "name": "Southwood Apartments", "address": "2688 Calhoun Street", "type": "9% in service", "ProjYear": "2008" }, "geometry": { "type": "Point", "coordinates": [ -84.614177650078403, 31.748429070145502 ] } },
{ "type": "Feature", "properties": { "id": "2008-009", "name": "Antigua Place II", "address": "2310 5th Ave SE", "type": "9% in service", "ProjYear": "2008" }, "geometry": { "type": "Point", "coordinates": [ -83.757426189367095, 31.172279260179799 ] } },
{ "type": "Feature", "properties": { "id": "2008-008", "name": "Baptist Towers", "address": "1881 Myrtle Drive SW", "type": "9% in service", "ProjYear": "2008" }, "geometry": { "type": "Point", "coordinates": [ -84.454999689384096, 33.703545959578399 ] } },
{ "type": "Feature", "properties": { "id": "2008-006", "name": "Terrace at Edinburgh", "address": "2515 Kennedy Circle", "type": "9% in service", "ProjYear": "2008" }, "geometry": { "type": "Point", "coordinates": [ -82.050937760469296, 33.450199959560599 ] } },
{ "type": "Feature", "properties": { "id": "2007-053", "name": "Terraces at Parkview", "address": "6800 Parkview Trail", "type": "9% in service", "ProjYear": "2007" }, "geometry": { "type": "Point", "coordinates": [ -84.111180979618496, 33.712102999853599 ] } },
{ "type": "Feature", "properties": { "id": "2007-052", "name": "Ashley Collegetown II", "address": "387 Joseph E Lowery Blvd SW", "type": "9% in service", "ProjYear": "2007" }, "geometry": { "type": "Point", "coordinates": [ -84.417563009825002, 33.7447399904582 ] } },
{ "type": "Feature", "properties": { "id": "2007-051", "name": "J.O. Chiles Annex Supportive Housing", "address": "899 Park Street", "type": "9% in service", "ProjYear": "2007" }, "geometry": { "type": "Point", "coordinates": [ -84.417359239637193, 33.741957450276203 ] } },
{ "type": "Feature", "properties": { "id": "2007-050", "name": "Ashley Auburn Pointe I", "address": "357 Auburn Pointe Dr SE", "type": "9% in service", "ProjYear": "2007" }, "geometry": { "type": "Point", "coordinates": [ -84.3776410007316, 33.751181139997598 ] } },
{ "type": "Feature", "properties": { "id": "2007-049", "name": "Sustainable Fellwood I", "address": "1401 Fellwood Drive", "type": "9% in service", "ProjYear": "2007" }, "geometry": { "type": "Point", "coordinates": [ -81.116801719623695, 32.086684419950103 ] } },
{ "type": "Feature", "properties": { "id": "2007-048", "name": "Welcome House", "address": "234 Memorial Dr Sw", "type": "9% in service", "ProjYear": "2007" }, "geometry": { "type": "Point", "coordinates": [ -84.395299420232007, 33.746917110636197 ] } },
{ "type": "Feature", "properties": { "id": "2007-043", "name": "Juniper Court Apartments", "address": "283 Nancy Drive", "type": "9% in service", "ProjYear": "2007" }, "geometry": { "type": "Point", "coordinates": [ -82.912435129777407, 34.358817159984 ] } },
{ "type": "Feature", "properties": { "id": "2007-040", "name": "Tuscany Village", "address": "600 Northern Avenue", "type": "9% in service", "ProjYear": "2007" }, "geometry": { "type": "Point", "coordinates": [ -84.246317040299104, 33.793450629642898 ] } },
{ "type": "Feature", "properties": { "id": "2007-039", "name": "Big Sky Village", "address": "301 Skyview Dr", "type": "9% in service", "ProjYear": "2007" }, "geometry": { "type": "Point", "coordinates": [ -83.753994559901003, 34.955014659698897 ] } },
{ "type": "Feature", "properties": { "id": "2007-038", "name": "Lucky Pointe", "address": "307 Stanfield Road", "type": "9% in service", "ProjYear": "2007" }, "geometry": { "type": "Point", "coordinates": [ -85.272145230218101, 34.729644250082103 ] } },
{ "type": "Feature", "properties": { "id": "2007-037", "name": "Catoosa Senior Village II", "address": "400 Birchwood Road", "type": "9% in service", "ProjYear": "2007" }, "geometry": { "type": "Point", "coordinates": [ -84.950845000396498, 34.502829999604799 ] } },
{ "type": "Feature", "properties": { "id": "2007-036", "name": "Ashford Landing Senior", "address": "3521 Blair Circle NE", "type": "9% in service", "ProjYear": "2007" }, "geometry": { "type": "Point", "coordinates": [ -84.323375729506296, 33.893825640441001 ] } },
{ "type": "Feature", "properties": { "id": "2007-035", "name": "Blakely Commons", "address": "89 Blakely Commons Circle", "type": "9% in service", "ProjYear": "2007" }, "geometry": { "type": "Point", "coordinates": [ -84.937986740195896, 31.389165939556499 ] } },
{ "type": "Feature", "properties": { "id": "2007-034", "name": "Magnolia Terrace II Apartments", "address": "718 Greene Street", "type": "9% in service", "ProjYear": "2007" }, "geometry": { "type": "Point", "coordinates": [ -83.895479489786595, 32.544968329824599 ] } },
{ "type": "Feature", "properties": { "id": "2007-032", "name": "Kingsland II", "address": "201 Caney Heights", "type": "9% in service", "ProjYear": "2007" }, "geometry": { "type": "Point", "coordinates": [ -81.681519709267107, 30.810520220431901 ] } },
{ "type": "Feature", "properties": { "id": "2007-031", "name": "College Square", "address": "1207 Edwards Street", "type": "9% in service", "ProjYear": "2007" }, "geometry": { "type": "Point", "coordinates": [ -83.890357479314204, 32.541879259320403 ] } },
{ "type": "Feature", "properties": { "id": "2007-030", "name": "The Rivers", "address": "1105 Lake Dr.", "type": "9% in service", "ProjYear": "2007" }, "geometry": { "type": "Point", "coordinates": [ -84.591122569850697, 30.9254024694484 ] } },
{ "type": "Feature", "properties": { "id": "2007-029", "name": "Cloverset Place Apartments", "address": "74 Wilson Street", "type": "9% in service", "ProjYear": "2007" }, "geometry": { "type": "Point", "coordinates": [ -82.6046476201915, 31.86741043984 ] } },
{ "type": "Feature", "properties": { "id": "2007-025", "name": "Arbor Pointe", "address": "1312 Gazebo Way", "type": "9% in service", "ProjYear": "2007" }, "geometry": { "type": "Point", "coordinates": [ -84.942383889904505, 32.4281514205517 ] } },
{ "type": "Feature", "properties": { "id": "2007-024", "name": "The Retreat at Dorsey Manor", "address": "118 Haynes Rd", "type": "9% in service", "ProjYear": "2007" }, "geometry": { "type": "Point", "coordinates": [ -84.5470069195337, 33.9543899997987 ] } },
{ "type": "Feature", "properties": { "id": "2007-022", "name": "Village at Wedgewood", "address": "307 17th Avenue N.W.", "type": "9% in service", "ProjYear": "2007" }, "geometry": { "type": "Point", "coordinates": [ -84.210580040736303, 30.898069989638401 ] } },
{ "type": "Feature", "properties": { "id": "2007-021", "name": "Villas on Forsyth", "address": "101 Virginia Avenue", "type": "9% in service", "ProjYear": "2007" }, "geometry": { "type": "Point", "coordinates": [ -84.135500480562698, 33.052449820402998 ] } },
{ "type": "Feature", "properties": { "id": "2007-020", "name": "Sheppard Station", "address": "215 Brighton Woods Drive", "type": "9% in service", "ProjYear": "2007" }, "geometry": { "type": "Point", "coordinates": [ -81.2649873200088, 32.115546580010701 ] } },
{ "type": "Feature", "properties": { "id": "2007-016", "name": "The Legacy at Walton Lakes", "address": "4725 Walton Crossing", "type": "9% in service", "ProjYear": "2007" }, "geometry": { "type": "Point", "coordinates": [ -84.540229759895496, 33.665972449968599 ] } },
{ "type": "Feature", "properties": { "id": "2007-015", "name": "Whitehall Manor", "address": "298 Bryant Street", "type": "9% in service", "ProjYear": "2007" }, "geometry": { "type": "Point", "coordinates": [ -83.760579909435293, 34.586997559789602 ] } },
{ "type": "Feature", "properties": { "id": "2007-013", "name": "Whitehall Commons", "address": "299 Bryant Street", "type": "9% in service", "ProjYear": "2007" }, "geometry": { "type": "Point", "coordinates": [ -83.760647409849994, 34.587110040695798 ] } },
{ "type": "Feature", "properties": { "id": "2007-009", "name": "Browns Mill", "address": "500 Cleveland Ave SE", "type": "9% in service", "ProjYear": "2007" }, "geometry": { "type": "Point", "coordinates": [ -84.367653800082806, 33.6804622404401 ] } },
{ "type": "Feature", "properties": { "id": "2007-008", "name": "Courtes De Emerald II", "address": "1530 South Washington Street", "type": "9% in service", "ProjYear": "2007" }, "geometry": { "type": "Point", "coordinates": [ -84.578937009735199, 30.889400359638898 ] } },
{ "type": "Feature", "properties": { "id": "2007-007", "name": "JT Country Lane", "address": "1121 S. Main St", "type": "9% in service", "ProjYear": "2007" }, "geometry": { "type": "Point", "coordinates": [ -84.929879099241006, 31.3611735803965 ] } },
{ "type": "Feature", "properties": { "id": "2007-006", "name": "JT Heritage Square Elderly", "address": "307 W Railroad St, S", "type": "9% in service", "ProjYear": "2007" }, "geometry": { "type": "Point", "coordinates": [ -84.151818419184707, 31.1225648597805 ] } },
{ "type": "Feature", "properties": { "id": "2007-001", "name": "The Bridges at Southlake", "address": "503 Ebony Lane", "type": "9% in service", "ProjYear": "2007" }, "geometry": { "type": "Point", "coordinates": [ -84.157917720226607, 31.551603250189899 ] } },
{ "type": "Feature", "properties": { "id": "2006-057", "name": "Ashley Midtown II", "address": "1518 E Park Ave", "type": "9% in service", "ProjYear": "2006" }, "geometry": { "type": "Point", "coordinates": [ -81.072975179760704, 32.058498260486402 ] } },
{ "type": "Feature", "properties": { "id": "2006-056", "name": "John O. Chiles Senior", "address": "435 Joseph E. Lowery Blvd. SW", "type": "9% in service", "ProjYear": "2006" }, "geometry": { "type": "Point", "coordinates": [ -84.417592930269507, 33.743022879802098 ] } },
{ "type": "Feature", "properties": { "id": "2006-052", "name": "Magnolia Village", "address": "104 Magnolia Court", "type": "9% in service", "ProjYear": "2006" }, "geometry": { "type": "Point", "coordinates": [ -84.252133240156894, 32.0838225901405 ] } },
{ "type": "Feature", "properties": { "id": "2006-051", "name": "Albany Homes", "address": "1005 E 4th Avenue", "type": "9% in service", "ProjYear": "2006" }, "geometry": { "type": "Point", "coordinates": [ -84.131232589512393, 31.588661989659101 ] } },
{ "type": "Feature", "properties": { "id": "2006-045", "name": "Pearl Stephens Village", "address": "3321 Napier Avenue", "type": "9% in service", "ProjYear": "2006" }, "geometry": { "type": "Point", "coordinates": [ -83.683924910606095, 32.840684899688398 ] } },
{ "type": "Feature", "properties": { "id": "2006-044", "name": "Colony West", "address": "5284 Bloomfield Road", "type": "9% in service", "ProjYear": "2006" }, "geometry": { "type": "Point", "coordinates": [ -83.707459389739, 32.795482700166502 ] } },
{ "type": "Feature", "properties": { "id": "2006-042", "name": "Ashley Station Phase II", "address": "2321 Olive Street", "type": "9% in service", "ProjYear": "2006" }, "geometry": { "type": "Point", "coordinates": [ -84.979243479902706, 32.486200709795 ] } },
{ "type": "Feature", "properties": { "id": "2006-041", "name": "Veranda at Auburn Pointe", "address": "115 Hillard Street SE", "type": "9% in service", "ProjYear": "2006" }, "geometry": { "type": "Point", "coordinates": [ -84.376683039290796, 33.752080780403702 ] } },
{ "type": "Feature", "properties": { "id": "2006-039", "name": "Hickory Trace", "address": "34 Hickory Trace Circle", "type": "9% in service", "ProjYear": "2006" }, "geometry": { "type": "Point", "coordinates": [ -82.331245639574504, 32.602180980667796 ] } },
{ "type": "Feature", "properties": { "id": "2006-038", "name": "Summer Trace Townhomes", "address": "100 West Turner Street Unit 1-H", "type": "9% in service", "ProjYear": "2006" }, "geometry": { "type": "Point", "coordinates": [ -82.060196110062407, 32.406328979898497 ] } },
{ "type": "Feature", "properties": { "id": "2006-037", "name": "Creekwood", "address": "1049 Arch Street", "type": "9% in service", "ProjYear": "2006" }, "geometry": { "type": "Point", "coordinates": [ -82.584577069676001, 32.380076549892898 ] } },
{ "type": "Feature", "properties": { "id": "2006-036", "name": "Brookhaven", "address": "4740 Brookhaven Court", "type": "9% in service", "ProjYear": "2006" }, "geometry": { "type": "Point", "coordinates": [ -83.230549560713598, 30.681686010600998 ] } },
{ "type": "Feature", "properties": { "id": "2006-035", "name": "Ashton Place", "address": "700 Ashton Place Circle", "type": "9% in service", "ProjYear": "2006" }, "geometry": { "type": "Point", "coordinates": [ -83.639707889607394, 31.704382549814898 ] } },
{ "type": "Feature", "properties": { "id": "2006-033", "name": "Mechanicsville Station", "address": "520 Fulton Street SW", "type": "9% in service", "ProjYear": "2006" }, "geometry": { "type": "Point", "coordinates": [ -84.403649459954593, 33.741164570188801 ] } },
{ "type": "Feature", "properties": { "id": "2006-031", "name": "Mechanicsville Crossings", "address": "565 Wells Street SW", "type": "9% in service", "ProjYear": "2006" }, "geometry": { "type": "Point", "coordinates": [ -84.406453149493302, 33.740017479523097 ] } },
{ "type": "Feature", "properties": { "id": "2006-030", "name": "Pine Ridge Estates", "address": "108 Hubert Dollar Drive", "type": "9% in service", "ProjYear": "2006" }, "geometry": { "type": "Point", "coordinates": [ -84.594865719976994, 30.893217239783802 ] } },
{ "type": "Feature", "properties": { "id": "2006-029", "name": "Pines by the Creek", "address": "60 Heery Road", "type": "9% in service", "ProjYear": "2006" }, "geometry": { "type": "Point", "coordinates": [ -84.832241909836199, 33.379901859982901 ] } },
{ "type": "Feature", "properties": { "id": "2006-028", "name": "Campbell Creek", "address": "351 West Memorial Drive 350", "type": "9% in service", "ProjYear": "2006" }, "geometry": { "type": "Point", "coordinates": [ -84.844801189523295, 33.9238275302164 ] } },
{ "type": "Feature", "properties": { "id": "2006-026", "name": "Cameron Court Apartments", "address": "1807 Macon Road", "type": "9% in service", "ProjYear": "2006" }, "geometry": { "type": "Point", "coordinates": [ -83.729721910038094, 32.4756243003213 ] } },
{ "type": "Feature", "properties": { "id": "2006-025", "name": "Windsor Court Apartments", "address": "1201 Orange Street", "type": "9% in service", "ProjYear": "2006" }, "geometry": { "type": "Point", "coordinates": [ -83.901156720106499, 32.557862630356198 ] } },
{ "type": "Feature", "properties": { "id": "2006-024", "name": "Autumn Crest", "address": "887 Forrester Dr. Building D", "type": "9% in service", "ProjYear": "2006" }, "geometry": { "type": "Point", "coordinates": [ -84.437826419953296, 31.761543150596001 ] } },
{ "type": "Feature", "properties": { "id": "2006-023", "name": "Mulburry Court", "address": "154 Jack Allen Road", "type": "9% in service", "ProjYear": "2006" }, "geometry": { "type": "Point", "coordinates": [ -83.251421170650502, 31.730242519276899 ] } },
{ "type": "Feature", "properties": { "id": "2006-022", "name": "Annadale Park", "address": "661 Gorday Drive", "type": "9% in service", "ProjYear": "2006" }, "geometry": { "type": "Point", "coordinates": [ -83.640650739739797, 31.715704869584101 ] } },
{ "type": "Feature", "properties": { "id": "2006-021", "name": "The Village at Chickamauga", "address": "147 Arrow Head Dairy Lane", "type": "9% in service", "ProjYear": "2006" }, "geometry": { "type": "Point", "coordinates": [ -85.271035040534599, 34.887225840400298 ] } },
{ "type": "Feature", "properties": { "id": "2006-020", "name": "Lone Mountain I", "address": "140 Hailey Drive", "type": "9% in service", "ProjYear": "2006" }, "geometry": { "type": "Point", "coordinates": [ -85.127352119904302, 34.925677939985 ] } },
{ "type": "Feature", "properties": { "id": "2006-017", "name": "Bridge Creek", "address": "173 Bowen Mill Hwy., CB-1", "type": "9% in service", "ProjYear": "2006" }, "geometry": { "type": "Point", "coordinates": [ -83.247845030024095, 31.7283056305005 ] } },
{ "type": "Feature", "properties": { "id": "2006-016", "name": "Glynn Isle Townhomes", "address": "2106 K Street", "type": "9% in service", "ProjYear": "2006" }, "geometry": { "type": "Point", "coordinates": [ -81.485282430839504, 31.160523260340199 ] } },
{ "type": "Feature", "properties": { "id": "2006-015", "name": "Merrimac Village", "address": "1000 Merrimac Drive", "type": "9% in service", "ProjYear": "2006" }, "geometry": { "type": "Point", "coordinates": [ -83.265212339877607, 31.732269940105699 ] } },
{ "type": "Feature", "properties": { "id": "2006-014", "name": "Fullerton Square", "address": "102 West King Street", "type": "9% in service", "ProjYear": "2006" }, "geometry": { "type": "Point", "coordinates": [ -83.836751569429296, 31.544548620022901 ] } },
{ "type": "Feature", "properties": { "id": "2006-009", "name": "Pecan Grove II", "address": "100 Pecan Grove Drive", "type": "9% in service", "ProjYear": "2006" }, "geometry": { "type": "Point", "coordinates": [ -82.026887530035395, 33.090945319470897 ] } },
{ "type": "Feature", "properties": { "id": "2006-007", "name": "Pine Point", "address": "710 Bowery Lane", "type": "9% in service", "ProjYear": "2006" }, "geometry": { "type": "Point", "coordinates": [ -82.012304809919002, 30.855002849901702 ] } },
{ "type": "Feature", "properties": { "id": "2006-006", "name": "Village Green", "address": "767 Teresa Avenue", "type": "9% in service", "ProjYear": "2006" }, "geometry": { "type": "Point", "coordinates": [ -83.638189930221102, 31.702967470172698 ] } },
{ "type": "Feature", "properties": { "id": "2006-005", "name": "Rolling Oaks Elderly", "address": "109 Ralph St", "type": "9% in service", "ProjYear": "2006" }, "geometry": { "type": "Point", "coordinates": [ -81.913682620056804, 32.162951659891199 ] } },
{ "type": "Feature", "properties": { "id": "2006-004", "name": "Lyons Properties", "address": "385 East Liberty Avenue", "type": "9% in service", "ProjYear": "2006" }, "geometry": { "type": "Point", "coordinates": [ -82.312607039982893, 32.204249179356196 ] } },
{ "type": "Feature", "properties": { "id": "2006-002", "name": "Heron Lake II", "address": "1800 Eastwind Road", "type": "9% in service", "ProjYear": "2006" }, "geometry": { "type": "Point", "coordinates": [ -83.261430929893393, 30.877612489624799 ] } },
{ "type": "Feature", "properties": { "id": "2006-001", "name": "Laurel Ridge", "address": "101 Laurel Ridge Avenue West", "type": "9% in service", "ProjYear": "2006" }, "geometry": { "type": "Point", "coordinates": [ -85.059199080573094, 33.021763989916302 ] } },
{ "type": "Feature", "properties": { "id": "2005-048", "name": "Kingston Gardens Apartments", "address": "4416 Mumford Road", "type": "9% in service", "ProjYear": "2005" }, "geometry": { "type": "Point", "coordinates": [ -83.697410670066304, 32.847142520311102 ] } },
{ "type": "Feature", "properties": { "id": "2005-047", "name": "Kingstown Gardens", "address": "138 Kingstown Way", "type": "9% in service", "ProjYear": "2005" }, "geometry": { "type": "Point", "coordinates": [ -82.494073220003102, 33.451076870501197 ] } },
{ "type": "Feature", "properties": { "id": "2005-046", "name": "Seven Courts Apartments", "address": "2800 Martin Luther King Jr. Drive", "type": "9% in service", "ProjYear": "2005" }, "geometry": { "type": "Point", "coordinates": [ -84.478971010603601, 33.752489989921202 ] } },
{ "type": "Feature", "properties": { "id": "2005-045", "name": "Cedarwood Apartments", "address": "527 Richmond Hill Rd. West", "type": "9% in service", "ProjYear": "2005" }, "geometry": { "type": "Point", "coordinates": [ -82.033394940723895, 33.430042319597398 ] } },
{ "type": "Feature", "properties": { "id": "2005-043", "name": "Anthony Arms Apartments", "address": "1692 Anthony Road", "type": "9% in service", "ProjYear": "2005" }, "geometry": { "type": "Point", "coordinates": [ -83.669721149511403, 32.820141859759097 ] } },
{ "type": "Feature", "properties": { "id": "2005-041", "name": "Ashford Parkside Senior Residences", "address": "3522 Blair Circle NE", "type": "9% in service", "ProjYear": "2005" }, "geometry": { "type": "Point", "coordinates": [ -84.323968159702801, 33.894152740056903 ] } },
{ "type": "Feature", "properties": { "id": "2005-040", "name": "Capitol Gateway Phase II", "address": "43 Woodward Avenue SE", "type": "9% in service", "ProjYear": "2005" }, "geometry": { "type": "Point", "coordinates": [ -84.3855499904396, 33.745586350529699 ] } },
{ "type": "Feature", "properties": { "id": "2005-036", "name": "Westport Village", "address": "1612 Carswell Avenue", "type": "9% in service", "ProjYear": "2005" }, "geometry": { "type": "Point", "coordinates": [ -82.379592629795994, 31.213697830190799 ] } },
{ "type": "Feature", "properties": { "id": "2005-034", "name": "Linwood Place", "address": "300 Civic Dr.", "type": "9% in service", "ProjYear": "2005" }, "geometry": { "type": "Point", "coordinates": [ -84.786817630829006, 34.782723130268302 ] } },
{ "type": "Feature", "properties": { "id": "2005-033", "name": "Imperial Place", "address": "130 Ellen Court", "type": "9% in service", "ProjYear": "2005" }, "geometry": { "type": "Point", "coordinates": [ -83.299874110002094, 34.560820990296499 ] } },
{ "type": "Feature", "properties": { "id": "2005-032", "name": "Cottonwood Pointe", "address": "388 Sylvester Road", "type": "9% in service", "ProjYear": "2005" }, "geometry": { "type": "Point", "coordinates": [ -84.196338349834903, 31.234207739995298 ] } },
{ "type": "Feature", "properties": { "id": "2005-029", "name": "Legacy at Walton Village", "address": "1600 Roberta Drive", "type": "9% in service", "ProjYear": "2005" }, "geometry": { "type": "Point", "coordinates": [ -84.557270439579099, 33.914308790018701 ] } },
{ "type": "Feature", "properties": { "id": "2005-026", "name": "Mechanicsville Family", "address": "500 McDaniel Street SW", "type": "9% in service", "ProjYear": "2005" }, "geometry": { "type": "Point", "coordinates": [ -84.402160000083896, 33.741079989849702 ] } },
{ "type": "Feature", "properties": { "id": "2005-025", "name": "MKL Village Tower", "address": "380 Martin Street SE", "type": "9% in service", "ProjYear": "2005" }, "geometry": { "type": "Point", "coordinates": [ -84.383787879506997, 33.744393569807499 ] } },
{ "type": "Feature", "properties": { "id": "2005-024", "name": "Mechanicsville Sr. Residences", "address": "555 McDaniel Street SW", "type": "9% in service", "ProjYear": "2005" }, "geometry": { "type": "Point", "coordinates": [ -84.402649760078305, 33.740737970481 ] } },
{ "type": "Feature", "properties": { "id": "2005-021", "name": "Chamblee Senior Apartments", "address": "3381 Malone Drive", "type": "9% in service", "ProjYear": "2005" }, "geometry": { "type": "Point", "coordinates": [ -84.307157170466994, 33.8891052797849 ] } },
{ "type": "Feature", "properties": { "id": "2005-020", "name": "Park Commons HFOP", "address": "180 Peyton Place SW", "type": "9% in service", "ProjYear": "2005" }, "geometry": { "type": "Point", "coordinates": [ -84.474857879387599, 33.749422779237896 ] } },
{ "type": "Feature", "properties": { "id": "2005-019", "name": "Park Commons HFS", "address": "180 Peyton Place SW", "type": "9% in service", "ProjYear": "2005" }, "geometry": { "type": "Point", "coordinates": [ -84.474857879387599, 33.749422779237896 ] } },
{ "type": "Feature", "properties": { "id": "2005-018", "name": "Candler Forrest Apartments", "address": "Candler Road SE", "type": "9% in service", "ProjYear": "2005" }, "geometry": { "type": "Point", "coordinates": [ -84.280249440459301, 33.727904349905899 ] } },
{ "type": "Feature", "properties": { "id": "2005-017", "name": "Enota Village Apartments", "address": "55 Enota Village Drive", "type": "9% in service", "ProjYear": "2005" }, "geometry": { "type": "Point", "coordinates": [ -83.849766990654103, 34.934407960359103 ] } },
{ "type": "Feature", "properties": { "id": "2005-016", "name": "Avalon Park Apartments", "address": "2798 Peek Rd ", "type": "9% in service", "ProjYear": "2005" }, "geometry": { "type": "Point", "coordinates": [ -84.478615450142897, 33.776797590136702 ] } },
{ "type": "Feature", "properties": { "id": "2005-015", "name": "Avalon Park Senior", "address": "2748 Donald Lee Hollowell", "type": "9% in service", "ProjYear": "2005" }, "geometry": { "type": "Point", "coordinates": [ -84.475913039555095, 33.777235709260701 ] } },
{ "type": "Feature", "properties": { "id": "2005-013", "name": "Statesboro Summit Apartments", "address": "241 North Main Street", "type": "9% in service", "ProjYear": "2005" }, "geometry": { "type": "Point", "coordinates": [ -81.783752529655501, 32.457398310583599 ] } },
{ "type": "Feature", "properties": { "id": "2005-012", "name": "Riverside Gardens", "address": "575 Baxter Avenue", "type": "9% in service", "ProjYear": "2005" }, "geometry": { "type": "Point", "coordinates": [ -83.645644720027704, 32.8520115505926 ] } },
{ "type": "Feature", "properties": { "id": "2005-011", "name": "Burkestone Place", "address": "803 Davis Road", "type": "9% in service", "ProjYear": "2005" }, "geometry": { "type": "Point", "coordinates": [ -82.008471500059699, 33.096898710007501 ] } },
{ "type": "Feature", "properties": { "id": "2005-010", "name": "Cypresswood Apartments", "address": "116 S. Pittman St", "type": "9% in service", "ProjYear": "2005" }, "geometry": { "type": "Point", "coordinates": [ -82.847243180228503, 31.2936870097477 ] } },
{ "type": "Feature", "properties": { "id": "2005-009", "name": "Wildwood Apartments", "address": "1220 Sussex Dr", "type": "9% in service", "ProjYear": "2005" }, "geometry": { "type": "Point", "coordinates": [ -83.491641819913994, 31.461337280191401 ] } },
{ "type": "Feature", "properties": { "id": "2005-007", "name": "Village Square Apartments", "address": "70 Erie St, Box 41", "type": "9% in service", "ProjYear": "2005" }, "geometry": { "type": "Point", "coordinates": [ -82.675207670697404, 31.929867329813501 ] } },
{ "type": "Feature", "properties": { "id": "2005-006", "name": "Azalea Court Apartments", "address": "613 S Thomas St", "type": "9% in service", "ProjYear": "2005" }, "geometry": { "type": "Point", "coordinates": [ -82.466071459330394, 31.5378562601583 ] } },
{ "type": "Feature", "properties": { "id": "2005-005", "name": "Campbell Stone Apartments", "address": "2911 Pharr Court South NW", "type": "9% in service", "ProjYear": "2005" }, "geometry": { "type": "Point", "coordinates": [ -84.385412879800498, 33.834614200484999 ] } },
{ "type": "Feature", "properties": { "id": "2005-003", "name": "Hampton Lake", "address": "105 Caitlin Lane", "type": "9% in service", "ProjYear": "2005" }, "geometry": { "type": "Point", "coordinates": [ -83.969086769838498, 30.870098830196898 ] } },
{ "type": "Feature", "properties": { "id": "2005-002", "name": "Kirby Creek", "address": "105 Joyner Road", "type": "9% in service", "ProjYear": "2005" }, "geometry": { "type": "Point", "coordinates": [ -84.196488379235305, 30.8589564296955 ] } },
{ "type": "Feature", "properties": { "id": "2004-048", "name": "Whispering Pines Apartments", "address": "2748 Kelley Lake Road", "type": "9% in service", "ProjYear": "2004" }, "geometry": { "type": "Point", "coordinates": [ -84.278090179917896, 33.716609950488902 ] } },
{ "type": "Feature", "properties": { "id": "2004-047", "name": "Veranda at Midtown", "address": "1414 East Anderson Street", "type": "9% in service", "ProjYear": "2004" }, "geometry": { "type": "Point", "coordinates": [ -81.075065209591699, 32.056288659494101 ] } },
{ "type": "Feature", "properties": { "id": "2004-046", "name": "Peabody Redevelopment Partnership", "address": "1140 27th Street", "type": "9% in service", "ProjYear": "2004" }, "geometry": { "type": "Point", "coordinates": [ -84.9778043002282, 32.486993759854201 ] } },
{ "type": "Feature", "properties": { "id": "2004-045", "name": "Veranda at the Village at Carver", "address": "214 Thirkeld Avenue SW", "type": "9% in service", "ProjYear": "2004" }, "geometry": { "type": "Point", "coordinates": [ -84.3922132203638, 33.713312209390999 ] } },
{ "type": "Feature", "properties": { "id": "2004-043", "name": "Forest Heights", "address": "153 Forrest Heights Circle SW", "type": "9% in service", "ProjYear": "2004" }, "geometry": { "type": "Point", "coordinates": [ -84.970256189571401, 34.479812430099599 ] } },
{ "type": "Feature", "properties": { "id": "2004-041", "name": "Heritage Station Senior", "address": "765 McDaniel Street", "type": "9% in service", "ProjYear": "2004" }, "geometry": { "type": "Point", "coordinates": [ -84.401693049594499, 33.7338612900665 ] } },
{ "type": "Feature", "properties": { "id": "2004-039", "name": "Tori Pines", "address": "635 Ferncrest Drive", "type": "9% in service", "ProjYear": "2004" }, "geometry": { "type": "Point", "coordinates": [ -82.804990449449605, 32.999970180079799 ] } },
{ "type": "Feature", "properties": { "id": "2004-038", "name": "Lakeview Apts", "address": "136 N 10th Street", "type": "9% in service", "ProjYear": "2004" }, "geometry": { "type": "Point", "coordinates": [ -82.313358129474096, 32.2065854498587 ] } },
{ "type": "Feature", "properties": { "id": "2004-036", "name": "Thomson Villas", "address": "642 Forrest Clary Ext.", "type": "9% in service", "ProjYear": "2004" }, "geometry": { "type": "Point", "coordinates": [ -82.489365939986101, 33.458291770648799 ] } },
{ "type": "Feature", "properties": { "id": "2004-035", "name": "Pinewood Park", "address": "4755 Mercer University Dr.", "type": "9% in service", "ProjYear": "2004" }, "geometry": { "type": "Point", "coordinates": [ -83.719235409386599, 32.8272932201061 ] } },
{ "type": "Feature", "properties": { "id": "2004-034", "name": "Heritage Green", "address": "2981 Springdale Road", "type": "9% in service", "ProjYear": "2004" }, "geometry": { "type": "Point", "coordinates": [ -84.416558249463606, 33.6737847697514 ] } },
{ "type": "Feature", "properties": { "id": "2004-032", "name": "Spring Gardens", "address": "223 East Pine Street", "type": "9% in service", "ProjYear": "2004" }, "geometry": { "type": "Point", "coordinates": [ -82.331967470522301, 32.599808659941701 ] } },
{ "type": "Feature", "properties": { "id": "2004-031", "name": "Pecan Hills of Milledgeville", "address": "900 West Montgomery Street", "type": "9% in service", "ProjYear": "2004" }, "geometry": { "type": "Point", "coordinates": [ -83.2412319597871, 33.081399590618702 ] } },
{ "type": "Feature", "properties": { "id": "2004-030", "name": "Greenbriar", "address": "131 Burketts Ferry Road", "type": "9% in service", "ProjYear": "2004" }, "geometry": { "type": "Point", "coordinates": [ -82.614411870811097, 31.873392599688799 ] } },
{ "type": "Feature", "properties": { "id": "2004-028", "name": "4th Street Village Apartments", "address": "690 Fourth Street", "type": "9% in service", "ProjYear": "2004" }, "geometry": { "type": "Point", "coordinates": [ -83.360250970605804, 33.971410000471202 ] } },
{ "type": "Feature", "properties": { "id": "2004-027", "name": "Norman Berry Village", "address": "2840 Norman Berry Drive", "type": "9% in service", "ProjYear": "2004" }, "geometry": { "type": "Point", "coordinates": [ -84.426042899959796, 33.6746445701908 ] } },
{ "type": "Feature", "properties": { "id": "2004-026", "name": "Columbia Edgewood Sr. Residences", "address": "1281 Caroline St. NE", "type": "9% in service", "ProjYear": "2004" }, "geometry": { "type": "Point", "coordinates": [ -84.345386019648998, 33.7583525003677 ] } },
{ "type": "Feature", "properties": { "id": "2004-025", "name": "Columbia Grove", "address": "1783 Johnson Road NW", "type": "9% in service", "ProjYear": "2004" }, "geometry": { "type": "Point", "coordinates": [ -84.444837469873306, 33.785374200558998 ] } },
{ "type": "Feature", "properties": { "id": "2004-024", "name": "Columbia Blackshear Sr. Residences", "address": "14 Meldon Avenue SW", "type": "9% in service", "ProjYear": "2004" }, "geometry": { "type": "Point", "coordinates": [ -84.388799359702702, 33.711077199852902 ] } },
{ "type": "Feature", "properties": { "id": "2004-022", "name": "Monterey Pass", "address": "877 Cobbham Road", "type": "9% in service", "ProjYear": "2004" }, "geometry": { "type": "Point", "coordinates": [ -82.490502619200498, 33.484509940081701 ] } },
{ "type": "Feature", "properties": { "id": "2004-021", "name": "Overlook Pointe", "address": "1112 Blackshear Rd", "type": "9% in service", "ProjYear": "2004" }, "geometry": { "type": "Point", "coordinates": [ -83.768820470188501, 31.980578029752301 ] } },
{ "type": "Feature", "properties": { "id": "2004-020", "name": "Saratoga Court", "address": "50 Saratoga Way", "type": "9% in service", "ProjYear": "2004" }, "geometry": { "type": "Point", "coordinates": [ -85.345794999639494, 34.479775000316103 ] } },
{ "type": "Feature", "properties": { "id": "2004-019", "name": "Antigua Place", "address": "2450 Fifth Ave SE", "type": "9% in service", "ProjYear": "2004" }, "geometry": { "type": "Point", "coordinates": [ -83.755736140210701, 31.171662790205598 ] } },
{ "type": "Feature", "properties": { "id": "2004-018", "name": "Constitution Avenue Apartments", "address": "960 Constitution Road SE", "type": "9% in service", "ProjYear": "2004" }, "geometry": { "type": "Point", "coordinates": [ -84.357306929970804, 33.693518230082297 ] } },
{ "type": "Feature", "properties": { "id": "2004-016", "name": "Heathrow Senior Village", "address": "1000 Heathrow Way", "type": "9% in service", "ProjYear": "2004" }, "geometry": { "type": "Point", "coordinates": [ -83.747967880013604, 32.659810290112802 ] } },
{ "type": "Feature", "properties": { "id": "2004-014", "name": "Calhoun Gardens", "address": "110 Richardson Road, Apt. 2A", "type": "9% in service", "ProjYear": "2004" }, "geometry": { "type": "Point", "coordinates": [ -84.925596700327404, 34.4759309192765 ] } },
{ "type": "Feature", "properties": { "id": "2004-011", "name": "Moultrie Manor", "address": "409 MLK Jr. Drive", "type": "9% in service", "ProjYear": "2004" }, "geometry": { "type": "Point", "coordinates": [ -83.800699109276394, 31.183891419753198 ] } },
{ "type": "Feature", "properties": { "id": "2004-007", "name": "Emerald Pointe", "address": "111 Woodlawn Drive", "type": "9% in service", "ProjYear": "2004" }, "geometry": { "type": "Point", "coordinates": [ -82.918960110520601, 32.5464416999246 ] } },
{ "type": "Feature", "properties": { "id": "2004-006", "name": "The Groves", "address": "2822 Rainwater Road", "type": "9% in service", "ProjYear": "2004" }, "geometry": { "type": "Point", "coordinates": [ -83.540160300057806, 31.474892540158599 ] } },
{ "type": "Feature", "properties": { "id": "2004-002", "name": "Hunters Glen Apartments", "address": "340 6th Avenue", "type": "9% in service", "ProjYear": "2004" }, "geometry": { "type": "Point", "coordinates": [ -84.203954309843496, 30.882325840065501 ] } },
{ "type": "Feature", "properties": { "id": "2003-056", "name": "The Veranda at College Town", "address": "372 Legacy Drive SW", "type": "9% in service", "ProjYear": "2003" }, "geometry": { "type": "Point", "coordinates": [ -84.419217009657203, 33.744090349889802 ] } },
{ "type": "Feature", "properties": { "id": "2003-055", "name": "Huntington Court Senior Residences", "address": "4115 South Lee Street", "type": "9% in service", "ProjYear": "2003" }, "geometry": { "type": "Point", "coordinates": [ -83.999554899638895, 34.094821290270403 ] } },
{ "type": "Feature", "properties": { "id": "2003-053", "name": "Courtes De Emerald Apartments", "address": "1500 South Washington Street", "type": "9% in service", "ProjYear": "2003" }, "geometry": { "type": "Point", "coordinates": [ -84.578902070174394, 30.889660930107901 ] } },
{ "type": "Feature", "properties": { "id": "2003-049", "name": "Dulles Park Apartments", "address": "220 Old Clinton Road", "type": "9% in service", "ProjYear": "2003" }, "geometry": { "type": "Point", "coordinates": [ -83.544166599908607, 33.007239470325402 ] } },
{ "type": "Feature", "properties": { "id": "2003-043", "name": "Antioch Manor", "address": "411 Bishop Ming  Blvd.", "type": "9% in service", "ProjYear": "2003" }, "geometry": { "type": "Point", "coordinates": [ -84.196506130053805, 33.738317970398001 ] } },
{ "type": "Feature", "properties": { "id": "2003-042", "name": "Poplar Grove Apartments", "address": "617 Meriwether Street", "type": "9% in service", "ProjYear": "2003" }, "geometry": { "type": "Point", "coordinates": [ -84.272294150055004, 33.244074789919701 ] } },
{ "type": "Feature", "properties": { "id": "2003-041", "name": "Heritage Gardens", "address": "110 Heritage Garden Drive", "type": "9% in service", "ProjYear": "2003" }, "geometry": { "type": "Point", "coordinates": [ -83.532285839819593, 34.499098060427201 ] } },
{ "type": "Feature", "properties": { "id": "2003-040", "name": "Heritage Corner and Heritage Row", "address": "1901 Florence Street", "type": "9% in service", "ProjYear": "2003" }, "geometry": { "type": "Point", "coordinates": [ -81.108042300411796, 32.060783800232201 ] } },
{ "type": "Feature", "properties": { "id": "2003-039", "name": "Princeton Court Senior Residences", "address": "3633 Howard Drive", "type": "9% in service", "ProjYear": "2003" }, "geometry": { "type": "Point", "coordinates": [ -84.438173019569106, 33.6562606199317 ] } },
{ "type": "Feature", "properties": { "id": "2003-037", "name": "Grier Manor", "address": "391 Old Griffin Road", "type": "9% in service", "ProjYear": "2003" }, "geometry": { "type": "Point", "coordinates": [ -84.151377650658006, 33.427209870638997 ] } },
{ "type": "Feature", "properties": { "id": "2003-036", "name": "Starlight Place", "address": "154 Starlight Circle", "type": "9% in service", "ProjYear": "2003" }, "geometry": { "type": "Point", "coordinates": [ -84.243021939610799, 32.095206339900699 ] } },
{ "type": "Feature", "properties": { "id": "2003-035", "name": "Veranda Village", "address": "501 Lisa Street CB", "type": "9% in service", "ProjYear": "2003" }, "geometry": { "type": "Point", "coordinates": [ -81.224744100060093, 32.274813939611597 ] } },
{ "type": "Feature", "properties": { "id": "2003-034", "name": "Sunset Pointe", "address": "1288 Sunset Blvd", "type": "9% in service", "ProjYear": "2003" }, "geometry": { "type": "Point", "coordinates": [ -81.908737099737294, 31.6007176498997 ] } },
{ "type": "Feature", "properties": { "id": "2003-033", "name": "Auburn Ridge Apartments", "address": "145 Oakwood Ave", "type": "9% in service", "ProjYear": "2003" }, "geometry": { "type": "Point", "coordinates": [ -85.511819990100406, 34.864906110628603 ] } },
{ "type": "Feature", "properties": { "id": "2003-032", "name": "Jordan Estates", "address": "221 East Pine Street", "type": "9% in service", "ProjYear": "2003" }, "geometry": { "type": "Point", "coordinates": [ -82.332078150086502, 32.599746099503001 ] } },
{ "type": "Feature", "properties": { "id": "2003-031", "name": "Mineral Springs", "address": "297 Mineral Springs Road", "type": "9% in service", "ProjYear": "2003" }, "geometry": { "type": "Point", "coordinates": [ -84.311705519594, 34.866295180078602 ] } },
{ "type": "Feature", "properties": { "id": "2003-030", "name": "Montgomery Landing", "address": "714 W 57th St.", "type": "9% in service", "ProjYear": "2003" }, "geometry": { "type": "Point", "coordinates": [ -81.116874980196101, 32.0437860101163 ] } },
{ "type": "Feature", "properties": { "id": "2003-029", "name": "Montdele Development", "address": "807 Starr Place", "type": "9% in service", "ProjYear": "2003" }, "geometry": { "type": "Point", "coordinates": [ -83.771235780306995, 31.979590730627802 ] } },
{ "type": "Feature", "properties": { "id": "2003-029", "name": "Country Village", "address": "710 Vienna Road", "type": "9% in service", "ProjYear": "2003" }, "geometry": { "type": "Point", "coordinates": [ -84.014671070613403, 32.289372379831498 ] } },
{ "type": "Feature", "properties": { "id": "2003-028", "name": "Howell Mill", "address": "61 Howell Mill Road", "type": "9% in service", "ProjYear": "2003" }, "geometry": { "type": "Point", "coordinates": [ -84.787447679666599, 31.756437440335699 ] } },
{ "type": "Feature", "properties": { "id": "2003-026", "name": "Columbia Crest", "address": "1903 Drew Drive NW", "type": "9% in service", "ProjYear": "2003" }, "geometry": { "type": "Point", "coordinates": [ -84.451271419440403, 33.793428839969103 ] } },
{ "type": "Feature", "properties": { "id": "2003-025", "name": "Columbia Sr. Residences at MLK Village", "address": "125 Logan Street SE", "type": "9% in service", "ProjYear": "2003" }, "geometry": { "type": "Point", "coordinates": [ -84.382420370403693, 33.744602529982799 ] } },
{ "type": "Feature", "properties": { "id": "2003-022", "name": "Tattnall Place", "address": "150 Calhoun Way", "type": "9% in service", "ProjYear": "2003" }, "geometry": { "type": "Point", "coordinates": [ -83.643659909976805, 32.831727449762099 ] } },
{ "type": "Feature", "properties": { "id": "2003-021", "name": "Trinity Towers", "address": "2611 Springdale Rd. SW", "type": "9% in service", "ProjYear": "2003" }, "geometry": { "type": "Point", "coordinates": [ -84.415133010180199, 33.683410529272599 ] } },
{ "type": "Feature", "properties": { "id": "2003-019", "name": "Oakview", "address": "25 Herschel Walker Dr", "type": "9% in service", "ProjYear": "2003" }, "geometry": { "type": "Point", "coordinates": [ -82.719600000139906, 32.728014999992297 ] } },
{ "type": "Feature", "properties": { "id": "2003-018", "name": "Rolling Oaks Family", "address": "10 N River St", "type": "9% in service", "ProjYear": "2003" }, "geometry": { "type": "Point", "coordinates": [ -81.900452420043095, 32.162120379651903 ] } },
{ "type": "Feature", "properties": { "id": "2003-017", "name": "Heritage Station Family", "address": "765 McDaniel Street", "type": "9% in service", "ProjYear": "2003" }, "geometry": { "type": "Point", "coordinates": [ -84.401693049594499, 33.7338612900665 ] } },
{ "type": "Feature", "properties": { "id": "2003-015", "name": "Kirkwood Gardens", "address": "1929 Hosea Williams Drive", "type": "9% in service", "ProjYear": "2003" }, "geometry": { "type": "Point", "coordinates": [ -84.324795620521499, 33.752657369941701 ] } },
{ "type": "Feature", "properties": { "id": "2003-011", "name": "Jack Allen", "address": "160 Wilson Avenue", "type": "9% in service", "ProjYear": "2003" }, "geometry": { "type": "Point", "coordinates": [ -83.252399559292201, 31.730364909812799 ] } },
{ "type": "Feature", "properties": { "id": "2003-010", "name": "The Verandah", "address": "821 North Mayo Street", "type": "9% in service", "ProjYear": "2003" }, "geometry": { "type": "Point", "coordinates": [ -84.223789329713796, 32.086287119255203 ] } },
{ "type": "Feature", "properties": { "id": "2003-009", "name": "Valley Ridge", "address": "950 Mooty Bridge Road", "type": "9% in service", "ProjYear": "2003" }, "geometry": { "type": "Point", "coordinates": [ -85.0343316101157, 33.057742319852203 ] } },
{ "type": "Feature", "properties": { "id": "2003-008", "name": "East Oaks", "address": "252 Lonnie Lane", "type": "9% in service", "ProjYear": "2003" }, "geometry": { "type": "Point", "coordinates": [ -84.207411429693707, 32.065562439654897 ] } },
{ "type": "Feature", "properties": { "id": "2003-006", "name": "Heron Lake I", "address": "1800 Eastwind Road", "type": "9% in service", "ProjYear": "2003" }, "geometry": { "type": "Point", "coordinates": [ -83.261430929893393, 30.877612489624799 ] } },
{ "type": "Feature", "properties": { "id": "2003-005", "name": "Westover Place", "address": "419 S Westover Place", "type": "9% in service", "ProjYear": "2003" }, "geometry": { "type": "Point", "coordinates": [ -84.226580000666402, 31.569473010371201 ] } },
{ "type": "Feature", "properties": { "id": "2002-302", "name": "Pines Family Campus", "address": "305 Smith Ave. Ste A", "type": "9% in service", "ProjYear": "2002" }, "geometry": { "type": "Point", "coordinates": [ -83.271232219990907, 30.812883329402201 ] } },
{ "type": "Feature", "properties": { "id": "2002-301", "name": "Grove Park Village", "address": "1505 Clinton Rd", "type": "9% in service", "ProjYear": "2002" }, "geometry": { "type": "Point", "coordinates": [ -83.617740640118399, 32.861238060588001 ] } },
{ "type": "Feature", "properties": { "id": "2002-061", "name": "Westview Lofts", "address": "1528 Ralph David Abernathy Blvd", "type": "9% in service", "ProjYear": "2002" }, "geometry": { "type": "Point", "coordinates": [ -84.437570980116604, 33.743050759684898 ] } },
{ "type": "Feature", "properties": { "id": "2002-060", "name": "Columbia Heritage Sr. Residences", "address": "1900 Perry Blvd. NW", "type": "9% in service", "ProjYear": "2002" }, "geometry": { "type": "Point", "coordinates": [ -84.450215300595602, 33.795052619882497 ] } },
{ "type": "Feature", "properties": { "id": "2002-059", "name": "Columbia Park Citi Residences", "address": "921 Westmoreland Circle NW", "type": "9% in service", "ProjYear": "2002" }, "geometry": { "type": "Point", "coordinates": [ -84.449412679951195, 33.790213760057 ] } },
{ "type": "Feature", "properties": { "id": "2002-058", "name": "Pateville Estates", "address": "2010 Pateville Road", "type": "9% in service", "ProjYear": "2002" }, "geometry": { "type": "Point", "coordinates": [ -83.792455529498994, 31.9475868600456 ] } },
{ "type": "Feature", "properties": { "id": "2002-053", "name": "Pecan Grove I", "address": "100 Pecan Grove", "type": "9% in service", "ProjYear": "2002" }, "geometry": { "type": "Point", "coordinates": [ -82.026887530035395, 33.090945319470897 ] } },
{ "type": "Feature", "properties": { "id": "2002-052", "name": "Marian Point Apartments", "address": "416 W. Poplar street", "type": "9% in service", "ProjYear": "2002" }, "geometry": { "type": "Point", "coordinates": [ -84.269600540232702, 33.245862529732001 ] } },
{ "type": "Feature", "properties": { "id": "2002-047", "name": "Hearthstone Landing", "address": "100 Hearthstone Landing Drive", "type": "9% in service", "ProjYear": "2002" }, "geometry": { "type": "Point", "coordinates": [ -84.485204719821894, 34.232341159616801 ] } },
{ "type": "Feature", "properties": { "id": "2002-045", "name": "Magnolia Terrace Apartments", "address": "714 Green Street", "type": "9% in service", "ProjYear": "2002" }, "geometry": { "type": "Point", "coordinates": [ -83.895590130680006, 32.5452694902948 ] } },
{ "type": "Feature", "properties": { "id": "2002-044", "name": "Greenville Commons Apartments", "address": "738 North Depot Street", "type": "9% in service", "ProjYear": "2002" }, "geometry": { "type": "Point", "coordinates": [ -84.716358420404703, 33.033810330482403 ] } },
{ "type": "Feature", "properties": { "id": "2002-036", "name": "Dwell at the View", "address": "1620 Hollywood Road NW", "type": "9% in service", "ProjYear": "2002" }, "geometry": { "type": "Point", "coordinates": [ -84.470142689833196, 33.7996459000383 ] } },
{ "type": "Feature", "properties": { "id": "2002-035", "name": "Heritage Green", "address": "2891 Springdale Road", "type": "9% in service", "ProjYear": "2002" }, "geometry": { "type": "Point", "coordinates": [ -84.415904150056505, 33.676204269811301 ] } },
{ "type": "Feature", "properties": { "id": "2002-034", "name": "Lakewood Christian Manor", "address": "2141 Springdale Rd. SW", "type": "9% in service", "ProjYear": "2002" }, "geometry": { "type": "Point", "coordinates": [ -84.414023000361098, 33.696171140186003 ] } },
{ "type": "Feature", "properties": { "id": "2002-030", "name": "2009 Vineville", "address": "2009 Vineville Ave", "type": "9% in service", "ProjYear": "2002" }, "geometry": { "type": "Point", "coordinates": [ -83.650241680209305, 32.842262580353903 ] } },
{ "type": "Feature", "properties": { "id": "2002-028", "name": "College Hill", "address": "600 East 8th Street", "type": "9% in service", "ProjYear": "2002" }, "geometry": { "type": "Point", "coordinates": [ -85.172966360009497, 32.874497909451001 ] } },
{ "type": "Feature", "properties": { "id": "2002-023", "name": "Autumn Ridge", "address": "850 Autumn Court", "type": "9% in service", "ProjYear": "2002" }, "geometry": { "type": "Point", "coordinates": [ -84.953194030480105, 34.811797300105397 ] } },
{ "type": "Feature", "properties": { "id": "2002-022", "name": "Vista Ridge", "address": "160 Marsen Knob Dr.", "type": "9% in service", "ProjYear": "2002" }, "geometry": { "type": "Point", "coordinates": [ -83.390815390817593, 34.927979930129702 ] } },
{ "type": "Feature", "properties": { "id": "2002-021", "name": "Martin House at Adamsville Place", "address": "3724 Martin Luther King Jr Dr SW", "type": "9% in service", "ProjYear": "2002" }, "geometry": { "type": "Point", "coordinates": [ -84.509922110516897, 33.7642935899772 ] } },
{ "type": "Feature", "properties": { "id": "2002-019", "name": "Whispering Oaks", "address": "100 Whispering Oaks Dr.", "type": "9% in service", "ProjYear": "2002" }, "geometry": { "type": "Point", "coordinates": [ -81.485030359863202, 31.1615603306448 ] } },
{ "type": "Feature", "properties": { "id": "2002-006", "name": "Heritage", "address": "812 Brownlee Road", "type": "9% in service", "ProjYear": "2002" }, "geometry": { "type": "Point", "coordinates": [ -83.965133629813096, 33.278586849903199 ] } },
{ "type": "Feature", "properties": { "id": "2002-005", "name": "Hunter's Chase", "address": "1 Hunters Chase Circle", "type": "9% in service", "ProjYear": "2002" }, "geometry": { "type": "Point", "coordinates": [ -83.998108770003697, 30.859940289812599 ] } },
{ "type": "Feature", "properties": { "id": "2002-001", "name": "LaFayette Village", "address": "123 Old Airport Road", "type": "9% in service", "ProjYear": "2002" }, "geometry": { "type": "Point", "coordinates": [ -85.070051339997306, 33.021403999395098 ] } },
{ "type": "Feature", "properties": { "id": "2001-089", "name": "Logan Senior Village", "address": "319 South Bethel Street", "type": "9% in service", "ProjYear": "2001" }, "geometry": { "type": "Point", "coordinates": [ -84.323833859445003, 32.884295239833499 ] } },
{ "type": "Feature", "properties": { "id": "2001-087", "name": "Baltic Park Apartments", "address": "860 Hightower Road", "type": "9% in service", "ProjYear": "2001" }, "geometry": { "type": "Point", "coordinates": [ -83.653217249976095, 32.811026829724497 ] } },
{ "type": "Feature", "properties": { "id": "2001-084", "name": "Windsor Lake Sr. Apartments", "address": "241 Cove Landing Drive", "type": "9% in service", "ProjYear": "2001" }, "geometry": { "type": "Point", "coordinates": [ -83.968783259439803, 30.873593950000799 ] } },
{ "type": "Feature", "properties": { "id": "2001-077", "name": "Columbia Peoplestown", "address": "222 Tuskegee Street SE", "type": "9% in service", "ProjYear": "2001" }, "geometry": { "type": "Point", "coordinates": [ -84.380929059728302, 33.728523610476302 ] } },
{ "type": "Feature", "properties": { "id": "2001-076", "name": "Columbia Estates", "address": "1710 Noel Street NW", "type": "9% in service", "ProjYear": "2001" }, "geometry": { "type": "Point", "coordinates": [ -84.447798109994693, 33.792051450014498 ] } },
{ "type": "Feature", "properties": { "id": "2001-068", "name": "Selman Place LP", "address": "509 Gordon Ave", "type": "9% in service", "ProjYear": "2001" }, "geometry": { "type": "Point", "coordinates": [ -84.5507251503454, 30.901839509685601 ] } },
{ "type": "Feature", "properties": { "id": "2001-067", "name": "Catoosa Senior Village, LP", "address": "98 Timms Road", "type": "9% in service", "ProjYear": "2001" }, "geometry": { "type": "Point", "coordinates": [ -84.928987480787598, 34.513415959878699 ] } },
{ "type": "Feature", "properties": { "id": "2001-066", "name": "Harbor Pointe LP", "address": "88 Richards Drive", "type": "9% in service", "ProjYear": "2001" }, "geometry": { "type": "Point", "coordinates": [ -83.483514009863697, 31.471332599919599 ] } },
{ "type": "Feature", "properties": { "id": "2001-061", "name": "Eagles Pointe", "address": "104 Eagles Point Drive", "type": "9% in service", "ProjYear": "2001" }, "geometry": { "type": "Point", "coordinates": [ -81.522613080329293, 31.2290765897129 ] } },
{ "type": "Feature", "properties": { "id": "2001-056", "name": "Park Place", "address": "800 Parkplace Circle", "type": "9% in service", "ProjYear": "2001" }, "geometry": { "type": "Point", "coordinates": [ -85.044849999827605, 34.000490000613098 ] } },
{ "type": "Feature", "properties": { "id": "2001-048", "name": "South Rossville Senior Village", "address": "1300 McFarland Avenue", "type": "9% in service", "ProjYear": "2001" }, "geometry": { "type": "Point", "coordinates": [ -85.294545359380805, 34.971277799930597 ] } },
{ "type": "Feature", "properties": { "id": "2001-035", "name": "Park Place South Senior", "address": "240 Amal Drive SW", "type": "9% in service", "ProjYear": "2001" }, "geometry": { "type": "Point", "coordinates": [ -84.395158349877903, 33.706592150407502 ] } },
{ "type": "Feature", "properties": { "id": "2001-029", "name": "Laurel Pointe", "address": "510 E Main Street", "type": "9% in service", "ProjYear": "2001" }, "geometry": { "type": "Point", "coordinates": [ -81.760055459391893, 32.450732770301201 ] } },
{ "type": "Feature", "properties": { "id": "2001-025", "name": "Heritage Crossing", "address": "100 Crossing Place", "type": "9% in service", "ProjYear": "2001" }, "geometry": { "type": "Point", "coordinates": [ -83.4612928799624, 34.236793329848403 ] } },
{ "type": "Feature", "properties": { "id": "2001-022", "name": "Reynoldstown", "address": "1124 Wylie Street SE", "type": "9% in service", "ProjYear": "2001" }, "geometry": { "type": "Point", "coordinates": [ -84.350153140554994, 33.752451510628802 ] } },
{ "type": "Feature", "properties": { "id": "2001-019", "name": "Villas at Lake Acworth", "address": "4694 Old Cowan Road", "type": "9% in service", "ProjYear": "2001" }, "geometry": { "type": "Point", "coordinates": [ -84.660030740226404, 34.068593349703399 ] } },
{ "type": "Feature", "properties": { "id": "2001-014", "name": "Pine Forest", "address": "480 11th Avenue NE", "type": "9% in service", "ProjYear": "2001" }, "geometry": { "type": "Point", "coordinates": [ -84.200175500698805, 30.887752920360999 ] } },
{ "type": "Feature", "properties": { "id": "2001-013", "name": "Woodland", "address": "100 Woodland Circle, A5", "type": "9% in service", "ProjYear": "2001" }, "geometry": { "type": "Point", "coordinates": [ -83.254202209864005, 31.585731720542501 ] } },
{ "type": "Feature", "properties": { "id": "2001-012", "name": "Brierwood II", "address": "1025 Palmetto Street", "type": "9% in service", "ProjYear": "2001" }, "geometry": { "type": "Point", "coordinates": [ -84.571193759684206, 30.895193689736999 ] } },
{ "type": "Feature", "properties": { "id": "2001-010", "name": "Hays Mill Court", "address": "903 Hays Mill Road", "type": "9% in service", "ProjYear": "2001" }, "geometry": { "type": "Point", "coordinates": [ -85.0915220000402, 33.555473519986997 ] } },
{ "type": "Feature", "properties": { "id": "2001-009", "name": "Waterford Place", "address": "131 N Pickens Street", "type": "9% in service", "ProjYear": "2001" }, "geometry": { "type": "Point", "coordinates": [ -83.242168810542097, 33.078968570243397 ] } },
{ "type": "Feature", "properties": { "id": "2001-008", "name": "Ridgecrest", "address": "301 Millside Drive", "type": "9% in service", "ProjYear": "2001" }, "geometry": { "type": "Point", "coordinates": [ -83.655120860239506, 32.6136129502774 ] } },
{ "type": "Feature", "properties": { "id": "2001-007", "name": "Waring II", "address": "812 E. Waring Street", "type": "9% in service", "ProjYear": "2001" }, "geometry": { "type": "Point", "coordinates": [ -82.355369659382205, 31.240992510596001 ] } },
{ "type": "Feature", "properties": { "id": "2001-006", "name": "Kirkwood Trail", "address": "133 Cason Road", "type": "9% in service", "ProjYear": "2001" }, "geometry": { "type": "Point", "coordinates": [ -85.252129579716296, 33.993551009771402 ] } },
{ "type": "Feature", "properties": { "id": "2001-001", "name": "Blount Crossing", "address": "1263 Blount Crossing  Road SE", "type": "9% in service", "ProjYear": "2001" }, "geometry": { "type": "Point", "coordinates": [ -81.428001419829599, 31.3934475092952 ] } },
{ "type": "Feature", "properties": { "id": "2000-061", "name": "Columbia Commons", "address": "2524 MLK Jr. Drive SW", "type": "9% in service", "ProjYear": "2000" }, "geometry": { "type": "Point", "coordinates": [ -84.470462879957907, 33.752975679583997 ] } },
{ "type": "Feature", "properties": { "id": "2000-059", "name": "Citi Homes", "address": "165 Marion Place NE", "type": "9% in service", "ProjYear": "2000" }, "geometry": { "type": "Point", "coordinates": [ -84.345127940302206, 33.756523610276403 ] } },
{ "type": "Feature", "properties": { "id": "2000-053", "name": "Columbia High Point Sr. Residences", "address": "220 Bowen Circle SW", "type": "9% in service", "ProjYear": "2000" }, "geometry": { "type": "Point", "coordinates": [ -84.3961333300891, 33.715053009988502 ] } },
{ "type": "Feature", "properties": { "id": "2000-052", "name": "Gatwick Senior Village", "address": "901 Perimeter Road", "type": "9% in service", "ProjYear": "2000" }, "geometry": { "type": "Point", "coordinates": [ -83.734848030412294, 32.468757169807603 ] } },
{ "type": "Feature", "properties": { "id": "2000-045", "name": "St Phillip Villas", "address": "829 N Hill St", "type": "9% in service", "ProjYear": "2000" }, "geometry": { "type": "Point", "coordinates": [ -84.261730349975593, 33.261580650226897 ] } },
{ "type": "Feature", "properties": { "id": "2000-028", "name": "Ashton Court", "address": "125 Parker Place", "type": "9% in service", "ProjYear": "2000" }, "geometry": { "type": "Point", "coordinates": [ -85.067305510141097, 33.027747510439298 ] } },
{ "type": "Feature", "properties": { "id": "2000-022", "name": "Heritage Place", "address": "1901 Florence Street", "type": "9% in service", "ProjYear": "2000" }, "geometry": { "type": "Point", "coordinates": [ -81.108042300411796, 32.060783800232201 ] } },
{ "type": "Feature", "properties": { "id": "2023-075", "name": "Davis Exchange", "address": "100 N Washington Street", "type": "9% allocated", "ProjYear": "2023" }, "geometry": { "type": "Point", "coordinates": [ -84.150711000312398, 31.576969999965598 ] } },
{ "type": "Feature", "properties": { "id": "2023-071", "name": "Legacy at Walton Crossing Phase 2", "address": "19 Garner Street NW", "type": "9% allocated", "ProjYear": "2023" }, "geometry": { "type": "Point", "coordinates": [ -84.204258000106506, 33.936752000304601 ] } },
{ "type": "Feature", "properties": { "id": "2023-059", "name": "Belwood Terrace", "address": "Belwood Rd", "type": "9% allocated", "ProjYear": "2023" }, "geometry": { "type": "Point", "coordinates": [ -84.914367999983199, 34.461978050147003 ] } },
{ "type": "Feature", "properties": { "id": "2023-051", "name": "Windsor Crossing", "address": "Windsor Avenue", "type": "9% allocated", "ProjYear": "2023" }, "geometry": { "type": "Point", "coordinates": [ -83.218197000091394, 31.208709000320098 ] } },
{ "type": "Feature", "properties": { "id": "2023-050", "name": "J.R. Johnson Legacy Village", "address": "195 Bray Street", "type": "9% allocated", "ProjYear": "2023" }, "geometry": { "type": "Point", "coordinates": [ -83.363763000362198, 33.972313999891199 ] } },
{ "type": "Feature", "properties": { "id": "2023-047", "name": "Magnolia Place Apartments", "address": "4 Pertilla Place", "type": "9% allocated", "ProjYear": "2023" }, "geometry": { "type": "Point", "coordinates": [ -83.497299999895105, 31.4432599996493 ] } },
{ "type": "Feature", "properties": { "id": "2023-046", "name": "Lafayette Village", "address": "123 Old Airport Road", "type": "9% allocated", "ProjYear": "2023" }, "geometry": { "type": "Point", "coordinates": [ -85.070037000307295, 33.021229000318201 ] } },
{ "type": "Feature", "properties": { "id": "2023-043", "name": "Douglass School Senior Apartments", "address": "115 Forrest Street", "type": "9% allocated", "ProjYear": "2023" }, "geometry": { "type": "Point", "coordinates": [ -83.994520000197795, 30.839244000010599 ] } },
{ "type": "Feature", "properties": { "id": "2023-041", "name": "RHA Redevelopment Phase I", "address": "199 Grove Way", "type": "9% allocated", "ProjYear": "2023" }, "geometry": { "type": "Point", "coordinates": [ -84.356588000236002, 34.018737999459198 ] } },
{ "type": "Feature", "properties": { "id": "2023-040", "name": "McAuley Park Phase II", "address": "300 Chamberlain St SE", "type": "9% allocated", "ProjYear": "2023" }, "geometry": { "type": "Point", "coordinates": [ -84.375417999840806, 33.752915000526897 ] } },
{ "type": "Feature", "properties": { "id": "2023-039", "name": "Carmichael Commons II", "address": " ", "type": "9% allocated", "ProjYear": "2023" }, "geometry": { "type": "Point", "coordinates": [ -83.473079999942001, 33.575735000170198 ] } },
{ "type": "Feature", "properties": { "id": "2023-037", "name": "Hillside Apartments", "address": "155 Hillside Drive", "type": "9% allocated", "ProjYear": "2023" }, "geometry": { "type": "Point", "coordinates": [ -83.376649000151204, 33.329136000126397 ] } },
{ "type": "Feature", "properties": { "id": "2023-032", "name": "Overlook at Ellijay", "address": "Courier Street (no address avail)", "type": "9% allocated", "ProjYear": "2023" }, "geometry": { "type": "Point", "coordinates": [ -84.495402000301993, 34.685191000564203 ] } },
{ "type": "Feature", "properties": { "id": "2023-031", "name": "Freedom's Path at Augusta III", "address": "1 Freedom Way, Buildings 19 and 20", "type": "9% allocated", "ProjYear": "2023" }, "geometry": { "type": "Point", "coordinates": [ -82.025872999439301, 33.467469999640798 ] } },
{ "type": "Feature", "properties": { "id": "2023-027", "name": "Bobby Jones Villas", "address": "4260 Nisbet Place", "type": "9% allocated", "ProjYear": "2023" }, "geometry": { "type": "Point", "coordinates": [ -83.714499999475393, 32.795039999896098 ] } },
{ "type": "Feature", "properties": { "id": "2023-026", "name": "West Pine Residences", "address": "W Pine Street", "type": "9% allocated", "ProjYear": "2023" }, "geometry": { "type": "Point", "coordinates": [ -83.8480990000688, 31.518617999820901 ] } },
{ "type": "Feature", "properties": { "id": "2023-025", "name": "Valley Trail", "address": "Hwy 76", "type": "9% allocated", "ProjYear": "2023" }, "geometry": { "type": "Point", "coordinates": [ -83.846823999727704, 34.947958999808101 ] } },
{ "type": "Feature", "properties": { "id": "2023-024", "name": "Westchester Village", "address": "GA-138 Spur & Cross Road Pkwy", "type": "9% allocated", "ProjYear": "2023" }, "geometry": { "type": "Point", "coordinates": [ -84.369738999655098, 33.536509999836703 ] } },
{ "type": "Feature", "properties": { "id": "2023-020", "name": "Oakside Apartments", "address": "1400 Oak Side Drive #76 Canton, GA", "type": "9% allocated", "ProjYear": "2023" }, "geometry": { "type": "Point", "coordinates": [ -84.489878580132299, 34.253256289546201 ] } },
{ "type": "Feature", "properties": { "id": "2023-017", "name": "Hollywood Family Apartments", "address": "1988 Hollywood Rd NW", "type": "9% allocated", "ProjYear": "2023" }, "geometry": { "type": "Point", "coordinates": [ -84.472021999515604, 33.8097779994551 ] } },
{ "type": "Feature", "properties": { "id": "2023-016", "name": "Haddock Landing", "address": "Haddock Road", "type": "9% allocated", "ProjYear": "2023" }, "geometry": { "type": "Point", "coordinates": [ -81.648266000475502, 30.782230999561001 ] } },
{ "type": "Feature", "properties": { "id": "2023-011", "name": "Hillmont Apartments", "address": "7069 Lakes Boulevard", "type": "9% allocated", "ProjYear": "2023" }, "geometry": { "type": "Point", "coordinates": [ -82.230709999966507, 30.6806299996748 ] } },
{ "type": "Feature", "properties": { "id": "2023-010", "name": "Charlton Court", "address": "38 Charlton Court", "type": "9% allocated", "ProjYear": "2023" }, "geometry": { "type": "Point", "coordinates": [ -82.001840000015903, 30.840839999866098 ] } },
{ "type": "Feature", "properties": { "id": "2023-009", "name": "Pinewood Park", "address": "4755 Mercer University Drive", "type": "9% allocated", "ProjYear": "2023" }, "geometry": { "type": "Point", "coordinates": [ -83.718995190575498, 32.827443650604003 ] } },
{ "type": "Feature", "properties": { "id": "2023-007", "name": "Peaks of Douglas", "address": "4947 Stewart Mill Road", "type": "9% allocated", "ProjYear": "2023" }, "geometry": { "type": "Point", "coordinates": [ -84.737334000063996, 33.719681000377904 ] } },
{ "type": "Feature", "properties": { "id": "2023-003", "name": "Wilshire II", "address": "790 Smyrna Hill Drive", "type": "9% allocated", "ProjYear": "2023" }, "geometry": { "type": "Point", "coordinates": [ -84.532369999975501, 33.870911000142598 ] } },
{ "type": "Feature", "properties": { "id": "2023-002", "name": "Village at Legacy Phase 2", "address": "500 S. Columbia Dr", "type": "9% allocated", "ProjYear": "2023" }, "geometry": { "type": "Point", "coordinates": [ -84.278659999359405, 33.7641400001609 ] } },
{ "type": "Feature", "properties": { "id": "2022-058", "name": "Walton Crossing Phase 1", "address": "19 Garner St. NW", "type": "9% allocated", "ProjYear": "2022" }, "geometry": { "type": "Point", "coordinates": [ -84.204318000175505, 33.936528999913499 ] } },
{ "type": "Feature", "properties": { "id": "2022-055", "name": "Abbington at Midway", "address": "3588 Covington Hwy", "type": "9% allocated", "ProjYear": "2022" }, "geometry": { "type": "Point", "coordinates": [ -84.251049000411001, 33.764477000413301 ] } },
{ "type": "Feature", "properties": { "id": "2022-053", "name": "Fair Oaks Lane Apartments", "address": "401 Lisa Street #200", "type": "9% allocated", "ProjYear": "2022" }, "geometry": { "type": "Point", "coordinates": [ -81.226476000067294, 32.277367000686603 ] } },
{ "type": "Feature", "properties": { "id": "2022-049", "name": "Clairmont Senior", "address": "1938 6th Street, Chamblee, GA", "type": "9% allocated", "ProjYear": "2022" }, "geometry": { "type": "Point", "coordinates": [ -84.308579000420494, 33.879063000157402 ] } },
{ "type": "Feature", "properties": { "id": "2022-047", "name": "Heritage Place", "address": "1901 Florance Street", "type": "9% allocated", "ProjYear": "2022" }, "geometry": { "type": "Point", "coordinates": [ -81.108193999853199, 32.060789000112301 ] } },
{ "type": "Feature", "properties": { "id": "2022-046", "name": "Harvest Station", "address": "403 Conoley Ave", "type": "9% allocated", "ProjYear": "2022" }, "geometry": { "type": "Point", "coordinates": [ -83.266600000089895, 30.8189240000426 ] } },
{ "type": "Feature", "properties": { "id": "2022-042", "name": "Dogwood Trace", "address": "E. Beetree Ave and N. Coffee Rd", "type": "9% allocated", "ProjYear": "2022" }, "geometry": { "type": "Point", "coordinates": [ -83.2446600000589, 31.210818999597201 ] } },
{ "type": "Feature", "properties": { "id": "2022-041", "name": "Spring Ridge", "address": "E Bush Street and S First Street", "type": "9% allocated", "ProjYear": "2022" }, "geometry": { "type": "Point", "coordinates": [ -84.7309630003422, 31.167380000087 ] } },
{ "type": "Feature", "properties": { "id": "2022-039", "name": "West Pointe Senior Village", "address": "West Pointe Court", "type": "9% allocated", "ProjYear": "2022" }, "geometry": { "type": "Point", "coordinates": [ -84.229048000264996, 31.614594999359799 ] } },
{ "type": "Feature", "properties": { "id": "2022-036", "name": "Covington Square", "address": "2101 Washington St SW", "type": "9% allocated", "ProjYear": "2022" }, "geometry": { "type": "Point", "coordinates": [ -83.862569000059295, 33.595883000300297 ] } },
{ "type": "Feature", "properties": { "id": "2022-035", "name": "Gibson Park", "address": "0 Roosevelt Hwy", "type": "9% allocated", "ProjYear": "2022" }, "geometry": { "type": "Point", "coordinates": [ -84.516735000219995, 33.614479999952103 ] } },
{ "type": "Feature", "properties": { "id": "2022-031", "name": "Juniper Village", "address": "Ruby Drive", "type": "9% allocated", "ProjYear": "2022" }, "geometry": { "type": "Point", "coordinates": [ -84.949545999847999, 34.898724000112601 ] } },
{ "type": "Feature", "properties": { "id": "2022-030", "name": "Garden City Senior Village", "address": "105 Robert C. Daniel Jr. Pky", "type": "9% allocated", "ProjYear": "2022" }, "geometry": { "type": "Point", "coordinates": [ -82.076354999983195, 33.494722000020303 ] } },
{ "type": "Feature", "properties": { "id": "2022-029", "name": "Tanner Place", "address": "4 SHIPP STREET", "type": "9% allocated", "ProjYear": "2022" },